state	county	lat	lon
Alabama	Autauga County	32.5322	-86.6464
Alabama	Baldwin County	30.6592	-87.7461
Alabama	Barbour County	31.8703	-85.4051
Alabama	Bibb County	33.0159	-87.1271
Alabama	Blount County	33.9774	-86.5664
Alabama	Bullock County	32.1018	-85.7173
Alabama	Butler County	31.7517	-86.6820
Alabama	Calhoun County	33.7705	-85.8279
Alabama	Chambers County	32.9155	-85.3940
Alabama	Cherokee County	34.0695	-85.6542
Alabama	Chilton County	32.8541	-86.7266
Alabama	Choctaw County	31.9910	-88.2489
Alabama	Clarke County	31.6855	-87.8186
Alabama	Clay County	33.2704	-85.8635
Alabama	Cleburne County	33.6720	-85.5161
Alabama	Coffee County	31.4023	-85.9896
Alabama	Colbert County	34.7031	-87.8015
Alabama	Conecuh County	31.4309	-86.9887
Alabama	Coosa County	32.9314	-86.2435
Alabama	Covington County	31.2440	-86.4487
Alabama	Crenshaw County	31.7303	-86.3200
Alabama	Cullman County	34.1319	-86.8693
Alabama	Dale County	31.4307	-85.6095
Alabama	Dallas County	32.3335	-87.1144
Alabama	DeKalb County	34.4609	-85.8040
Alabama	Elmore County	32.5972	-86.1427
Alabama	Escambia County	31.1223	-87.1684
Alabama	Etowah County	34.0476	-86.0343
Alabama	Fayette County	33.7162	-87.7643
Alabama	Franklin County	34.4420	-87.8428
Alabama	Geneva County	31.0924	-85.8210
Alabama	Greene County	32.8445	-87.9642
Alabama	Hale County	32.7528	-87.6231
Alabama	Henry County	31.5170	-85.2400
Alabama	Houston County	31.1582	-85.2964
Alabama	Jackson County	34.7641	-85.9801
Alabama	Jefferson County	33.5534	-86.8965
Alabama	Lamar County	33.7871	-88.0874
Alabama	Lauderdale County	34.9042	-87.6511
Alabama	Lawrence County	34.5298	-87.3219
Alabama	Lee County	32.6041	-85.3530
Alabama	Limestone County	34.8102	-86.9814
Alabama	Lowndes County	32.1479	-86.6506
Alabama	Macon County	32.3870	-85.6929
Alabama	Madison County	34.7642	-86.5511
Alabama	Marengo County	32.2476	-87.7911
Alabama	Marion County	34.1382	-87.8816
Alabama	Marshall County	34.3096	-86.3217
Alabama	Mobile County	30.6846	-88.1966
Alabama	Monroe County	31.5803	-87.3833
Alabama	Montgomery County	32.2029	-86.2045
Alabama	Morgan County	34.4545	-86.8464
Alabama	Perry County	32.6390	-87.2938
Alabama	Pickens County	33.2968	-88.0969
Alabama	Pike County	31.7987	-85.9416
Alabama	Randolph County	33.2965	-85.4641
Alabama	Russell County	32.2898	-85.1870
Alabama	Shelby County	33.2669	-86.6610
Alabama	St. Clair County	33.7195	-86.3113
Alabama	Sumter County	32.5975	-88.2001
Alabama	Talladega County	33.3693	-86.1759
Alabama	Tallapoosa County	32.8633	-85.7996
Alabama	Tuscaloosa County	33.2902	-87.5228
Alabama	Walker County	33.7916	-87.3011
Alabama	Washington County	31.4085	-88.2124
Alabama	Wilcox County	31.9901	-87.3049
Alabama	Winston County	34.1546	-87.3653
Arizona	Apache County	35.3851	-109.4902
Arizona	Cochise County	31.8401	-109.7752
Arizona	Coconino County	35.8297	-111.7737
Arizona	Gila County	33.7896	-110.8119
Arizona	Graham County	32.9318	-109.8783
Arizona	Greenlee County	33.2389	-109.2423
Arizona	La Paz County	33.7276	-114.0388
Arizona	Maricopa County	33.3452	-112.4989
Arizona	Mohave County	35.7177	-113.7497
Arizona	Navajo County	35.3908	-110.3210
Arizona	Pima County	32.1280	-111.7837
Arizona	Pinal County	32.9185	-111.3663
Arizona	Santa Cruz County	31.5257	-110.8452
Arizona	Yavapai County	34.6311	-112.5772
Arizona	Yuma County	32.7739	-113.9109
Arkansas	Arkansas County	34.2896	-91.3765
Arkansas	Ashley County	33.1908	-91.7723
Arkansas	Baxter County	36.2803	-92.3299
Arkansas	Benton County	36.3378	-94.2563
Arkansas	Boone County	36.3043	-93.0792
Arkansas	Bradley County	33.4665	-92.1692
Arkansas	Calhoun County	33.5605	-92.5139
Arkansas	Carroll County	36.3374	-93.5410
Arkansas	Chicot County	33.2671	-91.2972
Arkansas	Clark County	34.0533	-93.1762
Arkansas	Clay County	36.3673	-90.4187
Arkansas	Cleburne County	35.5663	-92.0600
Arkansas	Cleveland County	33.8932	-92.1887
Arkansas	Columbia County	33.2230	-93.2328
Arkansas	Conway County	35.2657	-92.6892
Arkansas	Craighead County	35.8277	-90.6314
Arkansas	Crawford County	35.5830	-94.2362
Arkansas	Crittenden County	35.1976	-90.3051
Arkansas	Cross County	35.2857	-90.7640
Arkansas	Dallas County	33.9678	-92.6540
Arkansas	Desha County	33.8288	-91.2441
Arkansas	Drew County	33.5872	-91.7228
Arkansas	Faulkner County	35.1465	-92.3369
Arkansas	Franklin County	35.5086	-93.8877
Arkansas	Fulton County	36.3813	-91.8193
Arkansas	Garland County	34.5789	-93.1469
Arkansas	Grant County	34.2856	-92.4230
Arkansas	Greene County	36.1206	-90.5663
Arkansas	Hempstead County	33.7360	-93.6644
Arkansas	Hot Spring County	34.3152	-92.9441
Arkansas	Howard County	34.0831	-93.9909
Arkansas	Independence County	35.7375	-91.5599
Arkansas	Izard County	36.0949	-91.9136
Arkansas	Jackson County	35.5965	-91.2232
Arkansas	Jefferson County	34.2772	-91.9297
Arkansas	Johnson County	35.5734	-93.4663
Arkansas	Lafayette County	33.2406	-93.6115
Arkansas	Lawrence County	36.0411	-91.1012
Arkansas	Lee County	34.7795	-90.7797
Arkansas	Lincoln County	33.9564	-91.7424
Arkansas	Little River County	33.7019	-94.2363
Arkansas	Logan County	35.2187	-93.7209
Arkansas	Lonoke County	34.7551	-91.8941
Arkansas	Madison County	36.0125	-93.7241
Arkansas	Marion County	36.2667	-92.6786
Arkansas	Miller County	33.3055	-93.9015
Arkansas	Mississippi County	35.7669	-90.0522
Arkansas	Monroe County	34.6795	-91.2033
Arkansas	Montgomery County	34.5457	-93.6642
Arkansas	Nevada County	33.6667	-93.3051
Arkansas	Newton County	35.9107	-93.2159
Arkansas	Ouachita County	33.5912	-92.8784
Arkansas	Perry County	34.9464	-92.9269
Arkansas	Phillips County	34.4237	-90.8556
Arkansas	Pike County	34.1582	-93.6587
Arkansas	Poinsett County	35.5689	-90.6811
Arkansas	Polk County	34.4909	-94.2309
Arkansas	Pope County	35.4566	-93.0268
Arkansas	Prairie County	34.8311	-91.5536
Arkansas	Pulaski County	34.7703	-92.3130
Arkansas	Randolph County	36.3413	-91.0284
Arkansas	Saline County	34.6485	-92.6745
Arkansas	Scott County	34.8589	-94.0636
Arkansas	Searcy County	35.8964	-92.6959
Arkansas	Sebastian County	35.1970	-94.2750
Arkansas	Sevier County	33.9949	-94.2433
Arkansas	Sharp County	36.1734	-91.4711
Arkansas	St. Francis County	35.0228	-90.7515
Arkansas	Stone County	35.8570	-92.1405
Arkansas	Union County	33.1682	-92.5981
Arkansas	Van Buren County	35.5830	-92.5160
Arkansas	Washington County	35.9780	-94.2173
Arkansas	White County	35.2551	-91.7530
Arkansas	Woodruff County	35.1928	-91.2445
Arkansas	Yell County	34.9977	-93.4083
California	Alameda County	37.6471	-121.9125
California	Alpine County	38.6218	-119.7984
California	Amador County	38.4435	-120.6539
California	Butte County	39.6653	-121.6032
California	Calaveras County	38.1911	-120.5541
California	Colusa County	39.1777	-122.2376
California	Contra Costa County	37.9195	-121.9515
California	Del Norte County	41.7499	-123.9810
California	El Dorado County	38.7856	-120.5342
California	Fresno County	36.7610	-119.6550
California	Glenn County	39.6025	-122.4017
California	Humboldt County	40.7067	-123.9262
California	Imperial County	33.0408	-115.3554
California	Inyo County	36.5622	-117.4042
California	Kern County	35.3466	-118.7295
California	Kings County	36.0725	-119.8155
California	Lake County	39.1080	-122.7452
California	Lassen County	40.7153	-120.6212
California	Los Angeles County	34.1964	-118.2619
California	Madera County	37.2098	-119.7498
California	Marin County	38.0514	-122.7464
California	Mariposa County	37.5743	-119.9117
California	Mendocino County	39.4324	-123.4429
California	Merced County	37.1948	-120.7228
California	Modoc County	41.5929	-120.7184
California	Mono County	37.9158	-118.8752
California	Monterey County	36.2401	-121.3156
California	Napa County	38.5071	-122.3259
California	Nevada County	39.2975	-120.7713
California	Orange County	33.6757	-117.7772
California	Placer County	39.0620	-120.7227
California	Plumas County	39.9923	-120.8244
California	Riverside County	33.7298	-116.0022
California	Sacramento County	38.4501	-121.3443
California	San Benito County	36.6117	-121.0858
California	San Bernardino County	34.8567	-116.1816
California	San Diego County	33.0236	-116.7761
California	San Francisco County	37.7272	-123.0322
California	San Joaquin County	37.9350	-121.2722
California	San Luis Obispo County	35.3882	-120.4489
California	San Mateo County	37.4147	-122.3715
California	Santa Barbara County	34.5367	-120.0384
California	Santa Clara County	37.2216	-121.6895
California	Santa Cruz County	37.0123	-122.0078
California	Shasta County	40.7605	-122.0436
California	Sierra County	39.5769	-120.5220
California	Siskiyou County	41.5880	-122.5333
California	Solano County	38.2672	-121.9396
California	Sonoma County	38.5252	-122.9261
California	Stanislaus County	37.5623	-121.0028
California	Sutter County	39.0362	-121.7039
California	Tehama County	40.1262	-122.2323
California	Trinity County	40.6479	-123.1147
California	Tulare County	36.2288	-118.7811
California	Tuolumne County	38.0214	-119.9647
California	Ventura County	34.3587	-119.1331
California	Yolo County	38.6796	-121.9027
California	Yuba County	39.2701	-121.3443
Colorado	Adams County	39.8743	-104.3319
Colorado	Alamosa County	37.5684	-105.7880
Colorado	Arapahoe County	39.6446	-104.3317
Colorado	Archuleta County	37.2024	-107.0509
Colorado	Baca County	37.3098	-102.5437
Colorado	Bent County	37.9319	-103.0776
Colorado	Boulder County	40.0950	-105.3977
Colorado	Broomfield County	39.9536	-105.0508
Colorado	Chaffee County	38.7346	-106.3000
Colorado	Cheyenne County	38.8356	-102.6018
Colorado	Clear Creek County	39.6894	-105.6708
Colorado	Conejos County	37.2134	-106.1764
Colorado	Costilla County	37.2775	-105.4289
Colorado	Crowley County	38.3062	-103.7727
Colorado	Custer County	38.1020	-105.3735
Colorado	Delta County	38.8616	-107.8649
Colorado	Denver County	39.7619	-104.8811
Colorado	Dolores County	37.7338	-108.5062
Colorado	Douglas County	39.3254	-104.9260
Colorado	Eagle County	39.6270	-106.6952
Colorado	El Paso County	38.8274	-104.5275
Colorado	Elbert County	39.3152	-104.1141
Colorado	Fremont County	38.4552	-105.4250
Colorado	Garfield County	39.5994	-107.9098
Colorado	Gilpin County	39.8612	-105.5289
Colorado	Grand County	40.1131	-106.1108
Colorado	Gunnison County	38.6705	-107.0569
Colorado	Hinsdale County	37.8115	-107.3840
Colorado	Huerfano County	37.6878	-104.9599
Colorado	Jackson County	40.6634	-106.3292
Colorado	Jefferson County	39.5795	-105.2455
Colorado	Kiowa County	38.3877	-102.7568
Colorado	Kit Carson County	39.3053	-102.6030
Colorado	La Plata County	37.2874	-107.8397
Colorado	Lake County	39.2053	-106.3501
Colorado	Larimer County	40.6581	-105.4868
Colorado	Las Animas County	37.3188	-104.0441
Colorado	Lincoln County	38.9937	-103.5076
Colorado	Logan County	40.7281	-103.0905
Colorado	Mesa County	39.0195	-108.4606
Colorado	Mineral County	37.5491	-107.0032
Colorado	Moffat County	40.6109	-108.2172
Colorado	Montezuma County	37.3380	-108.5958
Colorado	Montrose County	38.4075	-108.2663
Colorado	Morgan County	40.2632	-103.8122
Colorado	Otero County	37.8842	-103.7213
Colorado	Ouray County	38.1547	-107.7885
Colorado	Park County	39.1189	-105.7176
Colorado	Phillips County	40.5947	-102.3451
Colorado	Pitkin County	39.2175	-106.9162
Colorado	Prowers County	37.9582	-102.3922
Colorado	Pueblo County	38.1628	-104.4847
Colorado	Rio Blanco County	39.9726	-108.2007
Colorado	Rio Grande County	37.4859	-106.4531
Colorado	Routt County	40.4837	-106.9877
Colorado	Saguache County	38.0317	-106.2347
Colorado	San Juan County	37.7810	-107.6703
Colorado	San Miguel County	38.0093	-108.4273
Colorado	Sedgwick County	40.8716	-102.3554
Colorado	Summit County	39.6210	-106.1376
Colorado	Teller County	38.8700	-105.1874
Colorado	Washington County	39.9658	-103.2097
Colorado	Weld County	40.5560	-104.3837
Colorado	Yuma County	40.0008	-102.4216
Connecticut	Capitol Planning Region	41.8170	-72.5759
Connecticut	Greater Bridgeport Planning Region	41.1846	-73.2094
Connecticut	Lower Connecticut River Valley Planning Region	41.4203	-72.4935
Connecticut	Naugatuck Valley Planning Region	41.5189	-73.0879
Connecticut	Northeastern Connecticut Planning Region	41.8424	-71.9727
Connecticut	Northwest Hills Planning Region	41.8548	-73.2215
Connecticut	South Central Connecticut Planning Region	41.2902	-72.8370
Connecticut	Southeastern Connecticut Planning Region	41.4848	-72.1017
Connecticut	Western Connecticut Planning Region	41.2791	-73.4465
Delaware	Kent County	39.0971	-75.5030
Delaware	New Castle County	39.5759	-75.6441
Delaware	Sussex County	38.6732	-75.3370
District of Columbia	District of Columbia	38.9042	-77.0165
Florida	Alachua County	29.6757	-82.3572
Florida	Baker County	30.3244	-82.3023
Florida	Bay County	30.1591	-85.5344
Florida	Bradford County	29.9524	-82.1667
Florida	Brevard County	28.2983	-80.7003
Florida	Broward County	26.1935	-80.4767
Florida	Calhoun County	30.3888	-85.1979
Florida	Charlotte County	26.9064	-82.0037
Florida	Citrus County	28.8503	-82.5956
Florida	Clay County	29.9866	-81.8650
Florida	Collier County	26.1188	-81.4010
Florida	Columbia County	30.2217	-82.6234
Florida	DeSoto County	27.1906	-81.8063
Florida	Dixie County	29.5527	-83.2362
Florida	Duval County	30.3352	-81.6481
Florida	Escambia County	30.5300	-87.3203
Florida	Flagler County	29.4749	-81.2863
Florida	Franklin County	29.6778	-84.8152
Florida	Gadsden County	30.5787	-84.6126
Florida	Gilchrist County	29.7235	-82.7958
Florida	Glades County	26.9548	-81.1908
Florida	Gulf County	29.8592	-85.2720
Florida	Hamilton County	30.4984	-82.9511
Florida	Hardee County	27.4928	-81.8216
Florida	Hendry County	26.5400	-81.1521
Florida	Hernando County	28.5560	-82.5260
Florida	Highlands County	27.3411	-81.3424
Florida	Hillsborough County	27.8932	-82.3800
Florida	Holmes County	30.8620	-85.8159
Florida	Indian River County	27.7005	-80.5748
Florida	Jackson County	30.7892	-85.2088
Florida	Jefferson County	30.3969	-83.9218
Florida	Lafayette County	29.9901	-83.1785
Florida	Lake County	28.7641	-81.7123
Florida	Lee County	26.5633	-81.9842
Florida	Leon County	30.4593	-84.2778
Florida	Levy County	29.2719	-82.8312
Florida	Liberty County	30.2598	-84.8686
Florida	Madison County	30.4472	-83.4704
Florida	Manatee County	27.4756	-82.3931
Florida	Marion County	29.2028	-82.0431
Florida	Martin County	27.0836	-80.3982
Florida	Miami-Dade County	25.6160	-80.5037
Florida	Monroe County	25.5861	-81.0226
Florida	Nassau County	30.6060	-81.7651
Florida	Okaloosa County	30.6143	-86.5911
Florida	Okeechobee County	27.3856	-80.8874
Florida	Orange County	28.5144	-81.3233
Florida	Osceola County	28.0590	-81.1393
Florida	Palm Beach County	26.6491	-80.4484
Florida	Pasco County	28.3098	-82.5110
Florida	Pinellas County	27.9053	-82.7981
Florida	Polk County	27.9536	-81.6935
Florida	Putnam County	29.5939	-81.7320
Florida	Santa Rosa County	30.6753	-87.0189
Florida	Sarasota County	27.2253	-82.4237
Florida	Seminole County	28.6901	-81.1320
Florida	St. Johns County	29.8905	-81.4000
Florida	St. Lucie County	27.3798	-80.4435
Florida	Sumter County	28.7153	-82.0699
Florida	Suwannee County	30.1892	-82.9928
Florida	Taylor County	29.9671	-83.6396
Florida	Union County	30.0543	-82.3669
Florida	Volusia County	29.0578	-81.1618
Florida	Wakulla County	30.0913	-84.3591
Florida	Walton County	30.5712	-86.1628
Florida	Washington County	30.6021	-85.6558
Georgia	Appling County	31.7397	-82.2901
Georgia	Atkinson County	31.2968	-82.8782
Georgia	Bacon County	31.5502	-82.4514
Georgia	Baker County	31.3196	-84.4549
Georgia	Baldwin County	33.0595	-83.2555
Georgia	Banks County	34.3519	-83.4984
Georgia	Barrow County	33.9920	-83.7123
Georgia	Bartow County	34.2409	-84.8382
Georgia	Ben Hill County	31.7408	-83.1472
Georgia	Berrien County	31.2887	-83.2279
Georgia	Bibb County	32.8088	-83.6942
Georgia	Bleckley County	32.4354	-83.3317
Georgia	Brantley County	31.1973	-81.9830
Georgia	Brooks County	30.8229	-83.5819
Georgia	Bryan County	32.0180	-81.4385
Georgia	Bulloch County	32.3945	-81.7416
Georgia	Burke County	33.0602	-82.0002
Georgia	Butts County	33.2904	-83.9582
Georgia	Calhoun County	31.5213	-84.6263
Georgia	Camden County	30.9134	-81.6420
Georgia	Candler County	32.4039	-82.0713
Georgia	Carroll County	33.5822	-85.0805
Georgia	Catoosa County	34.9002	-85.1394
Georgia	Charlton County	30.7799	-82.1396
Georgia	Chatham County	31.9804	-81.0852
Georgia	Chattahoochee County	32.3474	-84.7880
Georgia	Chattooga County	34.4742	-85.3453
Georgia	Cherokee County	34.2443	-84.4751
Georgia	Clarke County	33.9522	-83.3672
Georgia	Clay County	31.6198	-84.9926
Georgia	Clayton County	33.5516	-84.4129
Georgia	Clinch County	30.9177	-82.7026
Georgia	Cobb County	33.9399	-84.5741
Georgia	Coffee County	31.5492	-82.8449
Georgia	Colquitt County	31.1897	-83.7698
Georgia	Columbia County	33.5521	-82.2496
Georgia	Cook County	31.1525	-83.4294
Georgia	Coweta County	33.3529	-84.7621
Georgia	Crawford County	32.7094	-83.9792
Georgia	Crisp County	31.9203	-83.7565
Georgia	Dade County	34.8524	-85.5062
Georgia	Dawson County	34.4426	-84.1733
Georgia	DeKalb County	33.7707	-84.2263
Georgia	Decatur County	30.8806	-84.5839
Georgia	Dodge County	32.1644	-83.1679
Georgia	Dooly County	32.1520	-83.8072
Georgia	Dougherty County	31.5326	-84.2090
Georgia	Douglas County	33.7012	-84.7673
Georgia	Early County	31.3242	-84.9067
Georgia	Echols County	30.7140	-82.8974
Georgia	Effingham County	32.3617	-81.3434
Georgia	Elbert County	34.1164	-82.8419
Georgia	Emanuel County	32.5911	-82.2998
Georgia	Evans County	32.1531	-81.8902
Georgia	Fannin County	34.8665	-84.3173
Georgia	Fayette County	33.4127	-84.4939
Georgia	Floyd County	34.2637	-85.2137
Georgia	Forsyth County	34.2251	-84.1274
Georgia	Franklin County	34.3753	-83.2275
Georgia	Fulton County	33.7900	-84.4682
Georgia	Gilmer County	34.6905	-84.4548
Georgia	Glascock County	33.2275	-82.6069
Georgia	Glynn County	31.2127	-81.4965
Georgia	Gordon County	34.5097	-84.8739
Georgia	Grady County	30.8759	-84.2450
Georgia	Greene County	33.5767	-83.1666
Georgia	Gwinnett County	33.9588	-84.0257
Georgia	Habersham County	34.6344	-83.5259
Georgia	Hall County	34.3176	-83.8185
Georgia	Hancock County	33.2692	-83.0005
Georgia	Haralson County	33.7952	-85.2201
Georgia	Harris County	32.7315	-84.9124
Georgia	Hart County	34.3487	-82.9633
Georgia	Heard County	33.2913	-85.1379
Georgia	Henry County	33.4529	-84.1540
Georgia	Houston County	32.4581	-83.6623
Georgia	Irwin County	31.6043	-83.2770
Georgia	Jackson County	34.1309	-83.5626
Georgia	Jasper County	33.3170	-83.6892
Georgia	Jeff Davis County	31.8116	-82.6368
Georgia	Jefferson County	33.0582	-82.4200
Georgia	Jenkins County	32.7946	-81.9715
Georgia	Johnson County	32.6946	-82.6640
Georgia	Jones County	33.0217	-83.5622
Georgia	Lamar County	33.0744	-84.1467
Georgia	Lanier County	31.0382	-83.0632
Georgia	Laurens County	32.3932	-82.9263
Georgia	Lee County	31.8184	-84.1467
Georgia	Liberty County	31.8075	-81.4579
Georgia	Lincoln County	33.7922	-82.4483
Georgia	Long County	31.7496	-81.7429
Georgia	Lowndes County	30.8331	-83.2690
Georgia	Lumpkin County	34.5681	-83.9989
Georgia	Macon County	32.3627	-84.0512
Georgia	Madison County	34.1285	-83.2037
Georgia	Marion County	32.3593	-84.5287
Georgia	McDuffie County	33.4806	-82.4795
Georgia	McIntosh County	31.4856	-81.3721
Georgia	Meriwether County	33.0293	-84.6671
Georgia	Miller County	31.1629	-84.7304
Georgia	Mitchell County	31.2290	-84.1920
Georgia	Monroe County	33.0188	-83.9218
Georgia	Montgomery County	32.1721	-82.5333
Georgia	Morgan County	33.5987	-83.4994
Georgia	Murray County	34.7971	-84.7380
Georgia	Muscogee County	32.5102	-84.8749
Georgia	Newton County	33.5528	-83.8514
Georgia	Oconee County	33.8341	-83.4377
Georgia	Oglethorpe County	33.8668	-83.0741
Georgia	Paulding County	33.9210	-84.8672
Georgia	Peach County	32.5713	-83.8320
Georgia	Pickens County	34.4567	-84.4904
Georgia	Pierce County	31.3540	-82.2104
Georgia	Pike County	33.0811	-84.3895
Georgia	Polk County	33.9960	-85.1883
Georgia	Pulaski County	32.2388	-83.4818
Georgia	Putnam County	33.3211	-83.3718
Georgia	Quitman County	31.8629	-85.0048
Georgia	Rabun County	34.8839	-83.4049
Georgia	Randolph County	31.7627	-84.7523
Georgia	Richmond County	33.3615	-82.0750
Georgia	Rockdale County	33.6521	-84.0264
Georgia	Schley County	32.2634	-84.3227
Georgia	Screven County	32.7448	-81.6176
Georgia	Seminole County	30.9340	-84.8677
Georgia	Spalding County	33.2623	-84.2849
Georgia	Stephens County	34.5536	-83.2906
Georgia	Stewart County	32.0732	-84.8349
Georgia	Sumter County	32.0423	-84.2043
Georgia	Talbot County	32.7046	-84.5300
Georgia	Taliaferro County	33.5593	-82.8753
Georgia	Tattnall County	32.0438	-82.0592
Georgia	Taylor County	32.5547	-84.2514
Georgia	Telfair County	31.9136	-82.9311
Georgia	Terrell County	31.7772	-84.4394
Georgia	Thomas County	30.8646	-83.9198
Georgia	Tift County	31.4570	-83.5259
Georgia	Toombs County	32.1178	-82.3306
Georgia	Towns County	34.9025	-83.7323
Georgia	Treutlen County	32.4096	-82.5709
Georgia	Troup County	33.0345	-85.0284
Georgia	Turner County	31.7248	-83.6203
Georgia	Twiggs County	32.6658	-83.4259
Georgia	Union County	34.8333	-83.9893
Georgia	Upson County	32.8818	-84.2923
Georgia	Walker County	34.7358	-85.3055
Georgia	Walton County	33.7839	-83.7318
Georgia	Ware County	31.0509	-82.4215
Georgia	Warren County	33.4192	-82.6880
Georgia	Washington County	32.9718	-82.7981
Georgia	Wayne County	31.5478	-81.9124
Georgia	Webster County	32.0467	-84.5538
Georgia	Wheeler County	32.1053	-82.7338
Georgia	White County	34.6442	-83.7430
Georgia	Whitfield County	34.8017	-84.9685
Georgia	Wilcox County	31.9627	-83.4383
Georgia	Wilkes County	33.7790	-82.7479
Georgia	Wilkinson County	32.8043	-83.1755
Georgia	Worth County	31.5518	-83.8500
Idaho	Ada County	43.4515	-116.2444
Idaho	Adams County	44.8770	-116.4616
Idaho	Bannock County	42.6929	-112.2290
Idaho	Bear Lake County	42.2859	-111.3275
Idaho	Benewah County	47.2185	-116.6335
Idaho	Bingham County	43.2164	-112.3992
Idaho	Blaine County	43.3942	-113.9554
Idaho	Boise County	43.9873	-115.7151
Idaho	Bonner County	48.3246	-116.6274
Idaho	Bonneville County	43.3952	-111.6219
Idaho	Boundary County	48.7731	-116.5247
Idaho	Butte County	43.6851	-113.1776
Idaho	Camas County	43.5026	-114.7721
Idaho	Canyon County	43.6258	-116.7091
Idaho	Caribou County	42.7861	-111.5443
Idaho	Cassia County	42.2823	-113.6263
Idaho	Clark County	44.2902	-112.3546
Idaho	Clearwater County	46.6726	-115.6535
Idaho	Custer County	44.2734	-114.2523
Idaho	Elmore County	43.3947	-115.4712
Idaho	Franklin County	42.1736	-111.8230
Idaho	Fremont County	44.2181	-111.4844
Idaho	Gem County	44.0615	-116.3988
Idaho	Gooding County	42.9732	-114.8214
Idaho	Idaho County	45.8496	-115.4673
Idaho	Jefferson County	43.7970	-112.3186
Idaho	Jerome County	42.6914	-114.2621
Idaho	Kootenai County	47.6760	-116.6959
Idaho	Latah County	46.8189	-116.7310
Idaho	Lemhi County	44.9285	-113.8870
Idaho	Lewis County	46.2363	-116.4238
Idaho	Lincoln County	42.9908	-114.1531
Idaho	Madison County	43.7886	-111.6570
Idaho	Minidoka County	42.8572	-113.6398
Idaho	Nez Perce County	46.3338	-116.7609
Idaho	Oneida County	42.1839	-112.5204
Idaho	Owyhee County	42.5729	-116.1897
Idaho	Payette County	44.0024	-116.7502
Idaho	Power County	42.6941	-112.8444
Idaho	Shoshone County	47.3477	-115.8851
Idaho	Teton County	43.7610	-111.2118
Idaho	Twin Falls County	42.3523	-114.6656
Idaho	Valley County	44.8560	-115.6181
Idaho	Washington County	44.4482	-116.7978
Illinois	Adams County	39.9861	-91.1950
Illinois	Alexander County	37.1837	-89.3495
Illinois	Bond County	38.8859	-89.4366
Illinois	Boone County	42.3190	-88.8243
Illinois	Brown County	39.9621	-90.7503
Illinois	Bureau County	41.4013	-89.5284
Illinois	Calhoun County	39.1643	-90.6663
Illinois	Carroll County	42.0709	-89.9242
Illinois	Cass County	39.9692	-90.2457
Illinois	Champaign County	40.1390	-88.1970
Illinois	Christian County	39.5455	-89.2796
Illinois	Clark County	39.3323	-87.7917
Illinois	Clay County	38.7468	-88.4823
Illinois	Clinton County	38.6063	-89.4262
Illinois	Coles County	39.5137	-88.2208
Illinois	Cook County	41.8943	-87.6455
Illinois	Crawford County	39.0028	-87.7606
Illinois	Cumberland County	39.2731	-88.2406
Illinois	De Witt County	40.1815	-88.9019
Illinois	DeKalb County	41.8946	-88.7690
Illinois	Douglas County	39.7661	-88.2229
Illinois	DuPage County	41.8521	-88.0860
Illinois	Edgar County	39.6790	-87.7471
Illinois	Edwards County	38.4171	-88.0479
Illinois	Effingham County	39.0479	-88.5928
Illinois	Fayette County	39.0011	-89.0179
Illinois	Ford County	40.5965	-88.2246
Illinois	Franklin County	37.9919	-88.9263
Illinois	Fulton County	40.4652	-90.2023
Illinois	Gallatin County	37.7687	-88.2280
Illinois	Greene County	39.3554	-90.3877
Illinois	Grundy County	41.2924	-88.4011
Illinois	Hamilton County	38.0852	-88.5390
Illinois	Hancock County	40.4013	-91.1688
Illinois	Hardin County	37.5179	-88.2661
Illinois	Henderson County	40.8145	-90.9412
Illinois	Henry County	41.3500	-90.1308
Illinois	Iroquois County	40.7489	-87.8336
Illinois	Jackson County	37.7861	-89.3812
Illinois	Jasper County	39.0049	-88.1507
Illinois	Jefferson County	38.3008	-88.9242
Illinois	Jersey County	39.0802	-90.3614
Illinois	Jo Daviess County	42.3624	-90.2115
Illinois	Johnson County	37.4607	-88.8821
Illinois	Kane County	41.9396	-88.4280
Illinois	Kankakee County	41.1395	-87.8611
Illinois	Kendall County	41.5881	-88.4306
Illinois	Knox County	40.9309	-90.2138
Illinois	LaSalle County	41.3433	-88.8859
Illinois	Lake County	42.1860	-87.8059
Illinois	Lawrence County	38.7190	-87.7302
Illinois	Lee County	41.7474	-89.2994
Illinois	Livingston County	40.8944	-88.5529
Illinois	Logan County	40.1293	-89.3653
Illinois	Macon County	39.8602	-88.9615
Illinois	Macoupin County	39.2659	-89.9263
Illinois	Madison County	38.8271	-89.9002
Illinois	Marion County	38.6482	-88.9204
Illinois	Marshall County	41.0311	-89.3424
Illinois	Mason County	40.2370	-89.9136
Illinois	Massac County	37.2161	-88.7057
Illinois	McDonough County	40.4558	-90.6790
Illinois	McHenry County	42.3243	-88.4522
Illinois	McLean County	40.4946	-88.8445
Illinois	Menard County	40.0226	-89.7941
Illinois	Mercer County	41.2056	-90.7418
Illinois	Monroe County	38.2780	-90.1791
Illinois	Montgomery County	39.2281	-89.4781
Illinois	Morgan County	39.7177	-90.2050
Illinois	Moultrie County	39.6369	-88.6257
Illinois	Ogle County	42.0419	-89.3202
Illinois	Peoria County	40.7860	-89.7670
Illinois	Perry County	38.0844	-89.3685
Illinois	Piatt County	40.0090	-88.5924
Illinois	Pike County	39.6251	-90.8890
Illinois	Pope County	37.4172	-88.5424
Illinois	Pulaski County	37.2156	-89.1278
Illinois	Putnam County	41.1990	-89.2983
Illinois	Randolph County	38.0565	-89.8212
Illinois	Richland County	38.7122	-88.0855
Illinois	Rock Island County	41.4684	-90.5721
Illinois	Saline County	37.7515	-88.5450
Illinois	Sangamon County	39.7569	-89.6624
Illinois	Schuyler County	40.1569	-90.6135
Illinois	Scott County	39.6370	-90.4778
Illinois	Shelby County	39.3849	-88.7989
Illinois	St. Clair County	38.4702	-89.9285
Illinois	Stark County	41.0969	-89.7974
Illinois	Stephenson County	42.3497	-89.6660
Illinois	Tazewell County	40.5081	-89.5163
Illinois	Union County	37.4857	-89.2446
Illinois	Vermilion County	40.1868	-87.7268
Illinois	Wabash County	38.4458	-87.8392
Illinois	Warren County	40.8504	-90.6202
Illinois	Washington County	38.3531	-89.4172
Illinois	Wayne County	38.4319	-88.4324
Illinois	White County	38.0873	-88.1786
Illinois	Whiteside County	41.7507	-89.9110
Illinois	Will County	41.4485	-87.9785
Illinois	Williamson County	37.7304	-88.9300
Illinois	Winnebago County	42.3374	-89.1612
Illinois	Woodford County	40.7898	-89.2106
Indiana	Adams County	40.7457	-84.9361
Indiana	Allen County	41.0919	-85.0718
Indiana	Bartholomew County	39.2058	-85.8980
Indiana	Benton County	40.6009	-87.3148
Indiana	Blackford County	40.4727	-85.3237
Indiana	Boone County	40.0509	-86.4690
Indiana	Brown County	39.1951	-86.2301
Indiana	Carroll County	40.5850	-86.5651
Indiana	Cass County	40.7538	-86.3552
Indiana	Clark County	38.4762	-85.7111
Indiana	Clay County	39.3939	-87.1159
Indiana	Clinton County	40.3059	-86.4776
Indiana	Crawford County	38.2894	-86.4409
Indiana	Daviess County	38.6961	-87.0769
Indiana	DeKalb County	41.3968	-85.0027
Indiana	Dearborn County	39.1409	-84.9759
Indiana	Decatur County	39.3060	-85.4998
Indiana	Delaware County	40.2275	-85.3993
Indiana	Dubois County	38.3733	-86.8734
Indiana	Elkhart County	41.6007	-85.8640
Indiana	Fayette County	39.6397	-85.1850
Indiana	Floyd County	38.3181	-85.9118
Indiana	Fountain County	40.1212	-87.2349
Indiana	Franklin County	39.4098	-85.0670
Indiana	Fulton County	41.0504	-86.2650
Indiana	Gibson County	38.3174	-87.5805
Indiana	Grant County	40.5158	-85.6549
Indiana	Greene County	39.0471	-87.0048
Indiana	Hamilton County	40.0535	-86.0217
Indiana	Hancock County	39.8225	-85.7732
Indiana	Harrison County	38.1865	-86.1038
Indiana	Hendricks County	39.7690	-86.5099
Indiana	Henry County	39.9296	-85.3974
Indiana	Howard County	40.4835	-86.1141
Indiana	Huntington County	40.8264	-85.4786
Indiana	Jackson County	38.9120	-86.0425
Indiana	Jasper County	41.0177	-87.1188
Indiana	Jay County	40.4350	-85.0023
Indiana	Jefferson County	38.7836	-85.4401
Indiana	Jennings County	38.9962	-85.6281
Indiana	Johnson County	39.4961	-86.0943
Indiana	Knox County	38.6884	-87.4204
Indiana	Kosciusko County	41.2443	-85.8616
Indiana	LaGrange County	41.6425	-85.4278
Indiana	LaPorte County	41.5490	-86.7447
Indiana	Lake County	41.4722	-87.3743
Indiana	Lawrence County	38.8398	-86.4878
Indiana	Madison County	40.1662	-85.7225
Indiana	Marion County	39.7830	-86.1358
Indiana	Marshall County	41.3250	-86.2690
Indiana	Martin County	38.7053	-86.8018
Indiana	Miami County	40.7729	-86.0443
Indiana	Monroe County	39.1607	-86.5233
Indiana	Montgomery County	40.0403	-86.8927
Indiana	Morgan County	39.4826	-86.4475
Indiana	Newton County	40.9624	-87.4022
Indiana	Noble County	41.4047	-85.4173
Indiana	Ohio County	38.9405	-84.9643
Indiana	Orange County	38.5474	-86.4893
Indiana	Owen County	39.3173	-86.8388
Indiana	Parke County	39.7742	-87.1970
Indiana	Perry County	38.0814	-86.6265
Indiana	Pike County	38.3980	-87.2325
Indiana	Porter County	41.5099	-87.0713
Indiana	Posey County	38.0276	-87.8687
Indiana	Pulaski County	41.0453	-86.6925
Indiana	Putnam County	39.6655	-86.8534
Indiana	Randolph County	40.1641	-85.0058
Indiana	Ripley County	39.1002	-85.2605
Indiana	Rush County	39.6224	-85.4665
Indiana	Scott County	38.6794	-85.7519
Indiana	Shelby County	39.5241	-85.7922
Indiana	Spencer County	38.0097	-87.0104
Indiana	St. Joseph County	41.6177	-86.2880
Indiana	Starke County	41.2845	-86.6446
Indiana	Steuben County	41.6435	-85.0024
Indiana	Sullivan County	39.0892	-87.4158
Indiana	Switzerland County	38.8259	-85.0297
Indiana	Tippecanoe County	40.3891	-86.8936
Indiana	Tipton County	40.3102	-86.0562
Indiana	Union County	39.6231	-84.9251
Indiana	Vanderburgh County	38.0201	-87.5862
Indiana	Vermillion County	39.8540	-87.4621
Indiana	Vigo County	39.4309	-87.3910
Indiana	Wabash County	40.8437	-85.7952
Indiana	Warren County	40.3525	-87.3752
Indiana	Warrick County	38.0977	-87.2720
Indiana	Washington County	38.6006	-86.1048
Indiana	Wayne County	39.8631	-85.0067
Indiana	Wells County	40.7355	-85.2133
Indiana	White County	40.7509	-86.8643
Indiana	Whitley County	41.1364	-85.5019
Iowa	Adair County	41.3285	-94.4782
Iowa	Adams County	41.0217	-94.6969
Iowa	Allamakee County	43.2750	-91.3828
Iowa	Appanoose County	40.7442	-92.8731
Iowa	Audubon County	41.6792	-94.9043
Iowa	Benton County	42.0925	-92.0576
Iowa	Black Hawk County	42.4711	-92.3076
Iowa	Boone County	42.0386	-93.9386
Iowa	Bremer County	42.7809	-92.3274
Iowa	Buchanan County	42.4703	-91.8387
Iowa	Buena Vista County	42.7415	-95.1414
Iowa	Butler County	42.7348	-92.7802
Iowa	Calhoun County	42.3862	-94.6437
Iowa	Carroll County	42.0395	-94.8676
Iowa	Cass County	41.3338	-94.9333
Iowa	Cedar County	41.7724	-91.1326
Iowa	Cerro Gordo County	43.0750	-93.2510
Iowa	Cherokee County	42.7427	-95.6333
Iowa	Chickasaw County	43.0597	-92.3172
Iowa	Clarke County	41.0297	-93.7853
Iowa	Clay County	43.0812	-95.1499
Iowa	Clayton County	42.8410	-91.3236
Iowa	Clinton County	41.8981	-90.5342
Iowa	Crawford County	42.0431	-95.3891
Iowa	Dallas County	41.6853	-94.0407
Iowa	Davis County	40.7481	-92.4103
Iowa	Decatur County	40.7364	-93.7846
Iowa	Delaware County	42.4729	-91.3668
Iowa	Des Moines County	40.9153	-91.1869
Iowa	Dickinson County	43.3896	-95.1961
Iowa	Dubuque County	42.4635	-90.8788
Iowa	Emmet County	43.3780	-94.6694
Iowa	Fayette County	42.8641	-91.8404
Iowa	Floyd County	43.0527	-92.7874
Iowa	Franklin County	42.7365	-93.2714
Iowa	Fremont County	40.7426	-95.5992
Iowa	Greene County	42.0425	-94.3887
Iowa	Grundy County	42.4033	-92.7902
Iowa	Guthrie County	41.6836	-94.5013
Iowa	Hamilton County	42.3908	-93.7091
Iowa	Hancock County	43.0754	-93.7437
Iowa	Hardin County	42.3902	-93.2417
Iowa	Harrison County	41.6886	-95.8271
Iowa	Henry County	40.9848	-91.5473
Iowa	Howard County	43.3653	-92.3219
Iowa	Humboldt County	42.7822	-94.2028
Iowa	Ida County	42.3919	-95.5074
Iowa	Iowa County	41.6839	-92.0591
Iowa	Jackson County	42.1642	-90.5746
Iowa	Jasper County	41.6856	-93.0541
Iowa	Jefferson County	41.0064	-91.9666
Iowa	Johnson County	41.6707	-91.5905
Iowa	Jones County	42.1251	-91.1169
Iowa	Keokuk County	41.3312	-92.1677
Iowa	Kossuth County	43.2124	-94.2140
Iowa	Lee County	40.6476	-91.4772
Iowa	Linn County	42.0780	-91.5977
Iowa	Louisa County	41.2182	-91.2570
Iowa	Lucas County	41.0333	-93.3315
Iowa	Lyon County	43.3836	-96.2072
Iowa	Madison County	41.3306	-94.0152
Iowa	Mahaska County	41.3308	-92.6364
Iowa	Marion County	41.3314	-93.0939
Iowa	Marshall County	42.0417	-92.9814
Iowa	Mills County	41.0337	-95.6191
Iowa	Mitchell County	43.3486	-92.7845
Iowa	Monona County	42.0494	-95.9566
Iowa	Monroe County	41.0288	-92.8696
Iowa	Montgomery County	41.0217	-95.1578
Iowa	Muscatine County	41.4838	-91.1187
Iowa	O'Brien County	43.0837	-95.6256
Iowa	Osceola County	43.3785	-95.6338
Iowa	Page County	40.7391	-95.1443
Iowa	Palo Alto County	43.0753	-94.6691
Iowa	Plymouth County	42.7376	-96.2159
Iowa	Pocahontas County	42.7340	-94.6783
Iowa	Polk County	41.6848	-93.5690
Iowa	Pottawattamie County	41.3402	-95.5449
Iowa	Poweshiek County	41.6846	-92.5229
Iowa	Ringgold County	40.7353	-94.2443
Iowa	Sac County	42.3875	-95.1052
Iowa	Scott County	41.6421	-90.6223
Iowa	Shelby County	41.6790	-95.3089
Iowa	Sioux County	43.0826	-96.1780
Iowa	Story County	42.0375	-93.4661
Iowa	Tama County	42.0748	-92.5294
Iowa	Taylor County	40.7379	-94.6971
Iowa	Union County	41.0286	-94.2451
Iowa	Van Buren County	40.7541	-91.9529
Iowa	Wapello County	41.0313	-92.4095
Iowa	Warren County	41.3324	-93.5688
Iowa	Washington County	41.3294	-91.7251
Iowa	Wayne County	40.7400	-93.3326
Iowa	Webster County	42.4336	-94.1758
Iowa	Winnebago County	43.3781	-93.7435
Iowa	Winneshiek County	43.2930	-91.8508
Iowa	Woodbury County	42.3932	-96.0533
Iowa	Worth County	43.3735	-93.2485
Iowa	Wright County	42.7330	-93.7347
Kansas	Allen County	37.8842	-95.3009
Kansas	Anderson County	38.2151	-95.2920
Kansas	Atchison County	39.5325	-95.3134
Kansas	Barber County	37.2229	-98.6851
Kansas	Barton County	38.4812	-98.7678
Kansas	Bourbon County	37.8561	-94.8509
Kansas	Brown County	39.8259	-95.5699
Kansas	Butler County	37.7736	-96.8388
Kansas	Chase County	38.2995	-96.5940
Kansas	Chautauqua County	37.1543	-96.2454
Kansas	Cherokee County	37.1694	-94.8457
Kansas	Cheyenne County	39.7899	-101.7273
Kansas	Clark County	37.2338	-99.8139
Kansas	Clay County	39.3450	-97.1689
Kansas	Cloud County	39.4873	-97.6414
Kansas	Coffey County	38.2365	-95.7291
Kansas	Comanche County	37.1814	-99.2513
Kansas	Cowley County	37.2345	-96.8372
Kansas	Crawford County	37.5058	-94.8539
Kansas	Decatur County	39.7835	-100.4597
Kansas	Dickinson County	38.8677	-97.1579
Kansas	Doniphan County	39.7885	-95.1472
Kansas	Douglas County	38.8964	-95.2909
Kansas	Edwards County	37.8836	-99.3047
Kansas	Elk County	37.4560	-96.2446
Kansas	Ellis County	38.9146	-99.3173
Kansas	Ellsworth County	38.7008	-98.2054
Kansas	Finney County	38.0498	-100.7400
Kansas	Ford County	37.6884	-99.8847
Kansas	Franklin County	38.5580	-95.2790
Kansas	Geary County	39.0021	-96.7681
Kansas	Gove County	38.9172	-100.4874
Kansas	Graham County	39.3550	-99.8799
Kansas	Grant County	37.5475	-101.2994
Kansas	Gray County	37.7445	-100.4517
Kansas	Greeley County	38.4804	-101.8060
Kansas	Greenwood County	37.8793	-96.2417
Kansas	Hamilton County	37.9952	-101.7937
Kansas	Harper County	37.1882	-98.0666
Kansas	Harvey County	38.0501	-97.4367
Kansas	Haskell County	37.5550	-100.8800
Kansas	Hodgeman County	38.0875	-99.8984
Kansas	Jackson County	39.4111	-95.7945
Kansas	Jefferson County	39.2396	-95.3753
Kansas	Jewell County	39.7770	-98.2226
Kansas	Johnson County	38.8839	-94.8223
Kansas	Kearny County	37.9945	-101.3081
Kansas	Kingman County	37.5530	-98.1445
Kansas	Kiowa County	37.5612	-99.2865
Kansas	Labette County	37.1915	-95.2975
Kansas	Lane County	38.4813	-100.4662
Kansas	Leavenworth County	39.1895	-95.0390
Kansas	Lincoln County	39.0473	-98.2143
Kansas	Linn County	38.2165	-94.8449
Kansas	Logan County	38.9133	-101.1574
Kansas	Lyon County	38.4554	-96.1616
Kansas	Marion County	38.3596	-97.1028
Kansas	Marshall County	39.7827	-96.5212
Kansas	McPherson County	38.3958	-97.6475
Kansas	Meade County	37.2439	-100.3601
Kansas	Miami County	38.5668	-94.8330
Kansas	Mitchell County	39.3930	-98.2074
Kansas	Montgomery County	37.1895	-95.7424
Kansas	Morris County	38.6882	-96.6514
Kansas	Morton County	37.1852	-101.8095
Kansas	Nemaha County	39.7910	-96.0054
Kansas	Neosho County	37.5643	-95.3157
Kansas	Ness County	38.4804	-99.9087
Kansas	Norton County	39.7839	-99.8992
Kansas	Osage County	38.6502	-95.7083
Kansas	Osborne County	39.3483	-98.7679
Kansas	Ottawa County	39.1380	-97.6548
Kansas	Pawnee County	38.1815	-99.2348
Kansas	Phillips County	39.7845	-99.3421
Kansas	Pottawatomie County	39.3822	-96.3371
Kansas	Pratt County	37.6476	-98.7401
Kansas	Rawlins County	39.7862	-101.0767
Kansas	Reno County	37.9482	-98.0783
Kansas	Republic County	39.8289	-97.6509
Kansas	Rice County	38.3472	-98.2014
Kansas	Riley County	39.2912	-96.7275
Kansas	Rooks County	39.3460	-99.3245
Kansas	Rush County	38.5236	-99.3092
Kansas	Russell County	38.9160	-98.7709
Kansas	Saline County	38.7918	-97.6515
Kansas	Scott County	38.4819	-100.9064
Kansas	Sedgwick County	37.6810	-97.4611
Kansas	Seward County	37.1810	-100.8553
Kansas	Shawnee County	39.0418	-95.7557
Kansas	Sheridan County	39.3505	-100.4412
Kansas	Sherman County	39.3514	-101.7199
Kansas	Smith County	39.7847	-98.7854
Kansas	Stafford County	38.0356	-98.7199
Kansas	Stanton County	37.5659	-101.7894
Kansas	Stevens County	37.2017	-101.3173
Kansas	Sumner County	37.2367	-97.4934
Kansas	Thomas County	39.3577	-101.0834
Kansas	Trego County	38.9213	-99.8654
Kansas	Wabaunsee County	38.9552	-96.2013
Kansas	Wallace County	38.9266	-101.7711
Kansas	Washington County	39.7767	-97.0956
Kansas	Wichita County	38.4819	-101.3474
Kansas	Wilson County	37.5585	-95.7452
Kansas	Woodson County	37.8882	-95.7585
Kansas	Wyandotte County	39.1154	-94.7631
Kentucky	Adair County	37.1056	-85.2814
Kentucky	Allen County	36.7508	-86.1925
Kentucky	Anderson County	38.0054	-84.9864
Kentucky	Ballard County	37.0513	-89.0104
Kentucky	Barren County	36.9628	-85.9321
Kentucky	Bath County	38.1522	-83.7376
Kentucky	Bell County	36.7289	-83.6807
Kentucky	Boone County	38.9589	-84.7364
Kentucky	Bourbon County	38.2026	-84.2099
Kentucky	Boyd County	38.3600	-82.6814
Kentucky	Boyle County	37.6181	-84.8684
Kentucky	Bracken County	38.6804	-84.1152
Kentucky	Breathitt County	37.5178	-83.3172
Kentucky	Breckinridge County	37.7780	-86.4329
Kentucky	Bullitt County	37.9699	-85.7026
Kentucky	Butler County	37.2070	-86.6825
Kentucky	Caldwell County	37.1486	-87.8705
Kentucky	Calloway County	36.6210	-88.2741
Kentucky	Campbell County	38.9470	-84.3796
Kentucky	Carlisle County	36.8572	-88.9766
Kentucky	Carroll County	38.6684	-85.1240
Kentucky	Carter County	38.3141	-83.0390
Kentucky	Casey County	37.3220	-84.9282
Kentucky	Christian County	36.8921	-87.4930
Kentucky	Clark County	37.9703	-84.1451
Kentucky	Clay County	37.1643	-83.7155
Kentucky	Clinton County	36.7273	-85.1361
Kentucky	Crittenden County	37.3581	-88.1050
Kentucky	Cumberland County	36.7824	-85.3885
Kentucky	Daviess County	37.7317	-87.0871
Kentucky	Edmonson County	37.2275	-86.2180
Kentucky	Elliott County	38.1169	-83.0961
Kentucky	Estill County	37.6924	-83.9640
Kentucky	Fayette County	38.0407	-84.4583
Kentucky	Fleming County	38.3678	-83.6992
Kentucky	Floyd County	37.5525	-82.7397
Kentucky	Franklin County	38.2349	-84.8688
Kentucky	Fulton County	36.5525	-89.1877
Kentucky	Gallatin County	38.7557	-84.8651
Kentucky	Garrard County	37.6302	-84.5459
Kentucky	Grant County	38.6492	-84.6259
Kentucky	Graves County	36.7233	-88.6499
Kentucky	Grayson County	37.4586	-86.3440
Kentucky	Green County	37.2781	-85.5379
Kentucky	Greenup County	38.5636	-82.9338
Kentucky	Hancock County	37.8433	-86.7928
Kentucky	Hardin County	37.6958	-85.9632
Kentucky	Harlan County	36.8592	-83.2215
Kentucky	Harrison County	38.4446	-84.3341
Kentucky	Hart County	37.3058	-85.8784
Kentucky	Henderson County	37.7925	-87.5726
Kentucky	Henry County	38.4514	-85.1196
Kentucky	Hickman County	36.6759	-88.9721
Kentucky	Hopkins County	37.3111	-87.5422
Kentucky	Jackson County	37.4035	-84.0206
Kentucky	Jefferson County	38.1895	-85.6576
Kentucky	Jessamine County	37.8733	-84.5840
Kentucky	Johnson County	37.8478	-82.8301
Kentucky	Kenton County	38.9305	-84.5334
Kentucky	Knott County	37.3544	-82.9525
Kentucky	Knox County	36.8885	-83.8556
Kentucky	Larue County	37.5445	-85.6968
Kentucky	Laurel County	37.1133	-84.1194
Kentucky	Lawrence County	38.0745	-82.7383
Kentucky	Lee County	37.6081	-83.7192
Kentucky	Leslie County	37.0878	-83.3886
Kentucky	Letcher County	37.1185	-82.8613
Kentucky	Lewis County	38.5350	-83.3701
Kentucky	Lincoln County	37.4572	-84.6583
Kentucky	Livingston County	37.2095	-88.3634
Kentucky	Logan County	36.8596	-86.8813
Kentucky	Lyon County	37.0240	-88.0834
Kentucky	Madison County	37.7255	-84.2784
Kentucky	Magoffin County	37.6990	-83.0697
Kentucky	Marion County	37.5526	-85.2690
Kentucky	Marshall County	36.8820	-88.3328
Kentucky	Martin County	37.7968	-82.5066
Kentucky	Mason County	38.5941	-83.8281
Kentucky	McCracken County	37.0541	-88.7125
Kentucky	McCreary County	36.7311	-84.4911
Kentucky	McLean County	37.5267	-87.2656
Kentucky	Meade County	37.9675	-86.2009
Kentucky	Menifee County	37.9355	-83.5894
Kentucky	Mercer County	37.8121	-84.8797
Kentucky	Metcalfe County	36.9924	-85.6335
Kentucky	Monroe County	36.7141	-85.7135
Kentucky	Montgomery County	38.0381	-83.9124
Kentucky	Morgan County	37.9229	-83.2589
Kentucky	Muhlenberg County	37.2138	-87.1341
Kentucky	Nelson County	37.8031	-85.4659
Kentucky	Nicholas County	38.3380	-84.0262
Kentucky	Ohio County	37.4779	-86.8449
Kentucky	Oldham County	38.4001	-85.4561
Kentucky	Owen County	38.4994	-84.8416
Kentucky	Owsley County	37.4236	-83.6916
Kentucky	Pendleton County	38.6963	-84.3519
Kentucky	Perry County	37.2413	-83.2178
Kentucky	Pike County	37.4860	-82.4109
Kentucky	Powell County	37.8096	-83.8312
Kentucky	Pulaski County	37.1075	-84.5770
Kentucky	Robertson County	38.5135	-84.0642
Kentucky	Rockcastle County	37.3611	-84.3144
Kentucky	Rowan County	38.2043	-83.4281
Kentucky	Russell County	36.9906	-85.0550
Kentucky	Scott County	38.2857	-84.5783
Kentucky	Shelby County	38.2390	-85.2282
Kentucky	Simpson County	36.7409	-86.5818
Kentucky	Spencer County	38.0253	-85.3173
Kentucky	Taylor County	37.3662	-85.3281
Kentucky	Todd County	36.8403	-87.1836
Kentucky	Trigg County	36.8077	-87.8587
Kentucky	Trimble County	38.6200	-85.3512
Kentucky	Union County	37.6580	-87.9516
Kentucky	Warren County	36.9956	-86.4236
Kentucky	Washington County	37.7542	-85.1754
Kentucky	Wayne County	36.8008	-84.8266
Kentucky	Webster County	37.5204	-87.6852
Kentucky	Whitley County	36.7580	-84.1446
Kentucky	Wolfe County	37.7439	-83.4951
Kentucky	Woodford County	38.0431	-84.7489
Louisiana	Acadia Parish	30.2915	-92.4110
Louisiana	Allen Parish	30.6527	-92.8196
Louisiana	Ascension Parish	30.2064	-90.9125
Louisiana	Assumption Parish	29.9033	-91.0652
Louisiana	Avoyelles Parish	31.0885	-91.9833
Louisiana	Beauregard Parish	30.6450	-93.3403
Louisiana	Bienville Parish	32.3410	-93.0412
Louisiana	Bossier Parish	32.6985	-93.6266
Louisiana	Caddo Parish	32.5801	-93.8850
Louisiana	Calcasieu Parish	30.2296	-93.3580
Louisiana	Caldwell Parish	32.1012	-92.1142
Louisiana	Cameron Parish	29.8718	-93.1649
Louisiana	Catahoula Parish	31.6665	-91.8467
Louisiana	Claiborne Parish	32.8272	-92.9897
Louisiana	Concordia Parish	31.4698	-91.6263
Louisiana	De Soto Parish	32.0592	-93.7408
Louisiana	East Baton Rouge Parish	30.5439	-91.0931
Louisiana	East Carroll Parish	32.7302	-91.2341
Louisiana	East Feliciana Parish	30.8398	-91.0434
Louisiana	Evangeline Parish	30.7207	-92.4041
Louisiana	Franklin Parish	32.1391	-91.6724
Louisiana	Grant Parish	31.5978	-92.5617
Louisiana	Iberia Parish	29.6060	-91.8427
Louisiana	Iberville Parish	30.2707	-91.3659
Louisiana	Jackson Parish	32.3043	-92.5617
Louisiana	Jefferson Davis Parish	30.2695	-92.8162
Louisiana	Jefferson Parish	29.5033	-90.0362
Louisiana	LaSalle Parish	31.6801	-92.1616
Louisiana	Lafayette Parish	30.2065	-92.0642
Louisiana	Lafourche Parish	29.4920	-90.3948
Louisiana	Lincoln Parish	32.6018	-92.6623
Louisiana	Livingston Parish	30.4404	-90.7275
Louisiana	Madison Parish	32.3469	-91.2319
Louisiana	Morehouse Parish	32.8200	-91.8004
Louisiana	Natchitoches Parish	31.7325	-93.0825
Louisiana	Orleans Parish	30.0534	-89.9345
Louisiana	Ouachita Parish	32.4809	-92.1516
Louisiana	Plaquemines Parish	29.2824	-89.5761
Louisiana	Pointe Coupee Parish	30.7083	-91.6046
Louisiana	Rapides Parish	31.1932	-92.5360
Louisiana	Red River Parish	32.1012	-93.3491
Louisiana	Richland Parish	32.4132	-91.7484
Louisiana	Sabine Parish	31.5604	-93.5596
Louisiana	St. Bernard Parish	29.9181	-89.2635
Louisiana	St. Charles Parish	29.9057	-90.3579
Louisiana	St. Helena Parish	30.8225	-90.7083
Louisiana	St. James Parish	30.0248	-90.7940
Louisiana	St. John the Baptist Parish	30.1441	-90.4910
Louisiana	St. Landry Parish	30.5834	-91.9893
Louisiana	St. Martin Parish	30.1214	-91.6115
Louisiana	St. Mary Parish	29.6293	-91.4638
Louisiana	St. Tammany Parish	30.4100	-89.9520
Louisiana	Tangipahoa Parish	30.6213	-90.4065
Louisiana	Tensas Parish	32.0015	-91.3426
Louisiana	Terrebonne Parish	29.3341	-90.8437
Louisiana	Union Parish	32.8293	-92.3757
Louisiana	Vermilion Parish	29.8066	-92.3214
Louisiana	Vernon Parish	31.1028	-93.1883
Louisiana	Washington Parish	30.8521	-90.0463
Louisiana	Webster Parish	32.7322	-93.3398
Louisiana	West Baton Rouge Parish	30.4641	-91.3098
Louisiana	West Carroll Parish	32.7925	-91.4520
Louisiana	West Feliciana Parish	30.8734	-91.4218
Louisiana	Winn Parish	31.9412	-92.6413
Maine	Androscoggin County	44.1677	-70.2074
Maine	Aroostook County	46.7092	-68.6124
Maine	Cumberland County	43.8083	-70.3304
Maine	Franklin County	44.9767	-70.4149
Maine	Hancock County	44.5649	-68.3707
Maine	Kennebec County	44.4170	-69.7658
Maine	Knox County	44.0420	-69.0385
Maine	Lincoln County	43.9948	-69.5136
Maine	Oxford County	44.4945	-70.7344
Maine	Penobscot County	45.4093	-68.6666
Maine	Piscataquis County	45.9156	-69.1022
Maine	Sagadahoc County	43.9168	-69.8442
Maine	Somerset County	45.5036	-69.9561
Maine	Waldo County	44.5058	-69.1390
Maine	Washington County	44.9670	-67.6094
Maine	York County	43.4260	-70.6684
Maryland	Allegany County	39.6123	-78.7031
Maryland	Anne Arundel County	38.9916	-76.5609
Maryland	Baltimore County	39.4432	-76.6166
Maryland	Baltimore city	39.3000	-76.6105
Maryland	Calvert County	38.5227	-76.5298
Maryland	Caroline County	38.8715	-75.8317
Maryland	Carroll County	39.5633	-77.0153
Maryland	Cecil County	39.5624	-75.9416
Maryland	Charles County	38.4729	-77.0154
Maryland	Dorchester County	38.4292	-76.0474
Maryland	Frederick County	39.4702	-77.3976
Maryland	Garrett County	39.5473	-79.2746
Maryland	Harford County	39.5374	-76.2998
Maryland	Howard County	39.2523	-76.9244
Maryland	Kent County	39.2413	-76.1260
Maryland	Montgomery County	39.1374	-77.2031
Maryland	Prince George's County	38.8293	-76.8482
Maryland	Queen Anne's County	39.0407	-76.0824
Maryland	Somerset County	38.0745	-75.8533
Maryland	St. Mary's County	38.2231	-76.5345
Maryland	Talbot County	38.7483	-76.1785
Maryland	Washington County	39.6036	-77.8147
Maryland	Wicomico County	38.3674	-75.6321
Maryland	Worcester County	38.2221	-75.3099
Massachusetts	Barnstable County	41.7061	-70.1648
Massachusetts	Berkshire County	42.3715	-73.2179
Massachusetts	Bristol County	41.7486	-71.0889
Massachusetts	Dukes County	41.3810	-70.7015
Massachusetts	Essex County	42.6427	-70.8649
Massachusetts	Franklin County	42.5845	-72.5918
Massachusetts	Hampden County	42.1362	-72.6356
Massachusetts	Hampshire County	42.3395	-72.6637
Massachusetts	Middlesex County	42.4817	-71.3949
Massachusetts	Nantucket County	41.2934	-70.1022
Massachusetts	Norfolk County	42.1717	-71.1811
Massachusetts	Plymouth County	41.9872	-70.7419
Massachusetts	Suffolk County	42.3386	-71.0183
Massachusetts	Worcester County	42.3117	-71.9403
Michigan	Alcona County	44.6575	-83.2946
Michigan	Alger County	46.5217	-86.6571
Michigan	Allegan County	42.4213	-86.2614
Michigan	Alpena County	44.8950	-83.4266
Michigan	Antrim County	45.0055	-85.1756
Michigan	Arenac County	44.0368	-83.7407
Michigan	Baraga County	46.6959	-88.3618
Michigan	Barry County	42.5828	-85.3146
Michigan	Bay County	43.6997	-83.9787
Michigan	Benzie County	44.6368	-86.2320
Michigan	Berrien County	41.7914	-86.7425
Michigan	Branch County	41.9185	-85.0669
Michigan	Calhoun County	42.2430	-85.0124
Michigan	Cass County	41.9172	-86.0001
Michigan	Charlevoix County	45.6186	-85.5437
Michigan	Cheboygan County	45.4760	-84.4954
Michigan	Chippewa County	46.3218	-84.5206
Michigan	Clare County	43.9911	-84.8383
Michigan	Clinton County	42.9505	-84.5917
Michigan	Crawford County	44.6802	-84.6113
Michigan	Delta County	45.8052	-86.9019
Michigan	Dickinson County	46.0128	-87.8661
Michigan	Eaton County	42.5895	-84.8464
Michigan	Emmet County	45.5901	-84.9868
Michigan	Genesee County	43.0211	-83.7064
Michigan	Gladwin County	43.9898	-84.3898
Michigan	Gogebic County	46.4881	-89.7883
Michigan	Grand Traverse County	44.7187	-85.5538
Michigan	Gratiot County	43.2923	-84.6047
Michigan	Hillsdale County	41.9275	-84.6375
Michigan	Houghton County	46.9984	-88.6519
Michigan	Huron County	43.9076	-82.8570
Michigan	Ingham County	42.6035	-84.3738
Michigan	Ionia County	42.9447	-85.0738
Michigan	Iosco County	44.3869	-83.3801
Michigan	Iron County	46.1703	-88.5405
Michigan	Isabella County	43.6452	-84.8394
Michigan	Jackson County	42.2485	-84.4209
Michigan	Kalamazoo County	42.2463	-85.5329
Michigan	Kalkaska County	44.6789	-85.0890
Michigan	Kent County	43.0325	-85.5474
Michigan	Keweenaw County	47.3673	-88.3513
Michigan	Lake County	43.9952	-85.8114
Michigan	Lapeer County	43.0886	-83.2243
Michigan	Leelanau County	45.1462	-86.0516
Michigan	Lenawee County	41.8960	-84.0744
Michigan	Livingston County	42.6025	-83.9117
Michigan	Luce County	46.5110	-85.5176
Michigan	Mackinac County	46.1679	-85.3038
Michigan	Macomb County	42.6716	-82.9115
Michigan	Manistee County	44.2453	-86.3275
Michigan	Marquette County	46.6566	-87.5840
Michigan	Mason County	43.9572	-86.4429
Michigan	Mecosta County	43.6353	-85.3328
Michigan	Menominee County	45.5356	-87.5015
Michigan	Midland County	43.6482	-84.3794
Michigan	Missaukee County	44.3254	-85.0855
Michigan	Monroe County	41.9161	-83.4871
Michigan	Montcalm County	43.3128	-85.1495
Michigan	Montmorency County	45.0241	-84.1301
Michigan	Muskegon County	43.4287	-86.4209
Michigan	Newaygo County	43.5627	-85.7914
Michigan	Oakland County	42.6605	-83.3842
Michigan	Oceana County	43.6040	-86.4672
Michigan	Ogemaw County	44.3333	-84.1281
Michigan	Ontonagon County	46.8353	-89.2769
Michigan	Osceola County	43.9976	-85.3223
Michigan	Oscoda County	44.6873	-84.1269
Michigan	Otsego County	45.0218	-84.5766
Michigan	Ottawa County	43.0550	-86.2193
Michigan	Presque Isle County	45.2524	-83.4323
Michigan	Roscommon County	44.3395	-84.6113
Michigan	Saginaw County	43.3283	-84.0554
Michigan	Sanilac County	43.4492	-82.6428
Michigan	Schoolcraft County	46.0211	-86.1970
Michigan	Shiawassee County	42.9515	-84.1464
Michigan	St. Clair County	42.9288	-82.6689
Michigan	St. Joseph County	41.9115	-85.5229
Michigan	Tuscola County	43.4879	-83.4366
Michigan	Van Buren County	42.2821	-86.3061
Michigan	Washtenaw County	42.2522	-83.8434
Michigan	Wayne County	42.2847	-83.2620
Michigan	Wexford County	44.3314	-85.5700
Minnesota	Aitkin County	46.6024	-93.4198
Minnesota	Anoka County	45.2741	-93.2427
Minnesota	Becker County	46.9376	-95.7418
Minnesota	Beltrami County	47.8795	-95.0050
Minnesota	Benton County	45.7012	-94.0014
Minnesota	Big Stone County	45.4199	-96.4022
Minnesota	Blue Earth County	44.0337	-94.0640
Minnesota	Brown County	44.2465	-94.7336
Minnesota	Carlton County	46.6038	-92.6710
Minnesota	Carver County	44.8213	-93.8001
Minnesota	Cass County	46.9517	-94.3337
Minnesota	Chippewa County	45.0286	-95.5641
Minnesota	Chisago County	45.5054	-92.9038
Minnesota	Clay County	46.8984	-96.4949
Minnesota	Clearwater County	47.5759	-95.3711
Minnesota	Cook County	47.7586	-90.3443
Minnesota	Cottonwood County	44.0106	-95.1832
Minnesota	Crow Wing County	46.4917	-94.0707
Minnesota	Dakota County	44.6709	-93.0625
Minnesota	Dodge County	44.0207	-92.8694
Minnesota	Douglas County	45.9368	-95.4622
Minnesota	Faribault County	43.6765	-93.9472
Minnesota	Fillmore County	43.6792	-92.0939
Minnesota	Freeborn County	43.6742	-93.3503
Minnesota	Goodhue County	44.4062	-92.7160
Minnesota	Grant County	45.9307	-96.0107
Minnesota	Hennepin County	45.0061	-93.4752
Minnesota	Houston County	43.6670	-91.5016
Minnesota	Hubbard County	47.0956	-94.9133
Minnesota	Isanti County	45.5624	-93.2963
Minnesota	Itasca County	47.4908	-93.6111
Minnesota	Jackson County	43.6711	-95.1497
Minnesota	Kanabec County	45.9478	-93.2978
Minnesota	Kandiyohi County	45.1527	-95.0050
Minnesota	Kittson County	48.7760	-96.7803
Minnesota	Koochiching County	48.2454	-93.7829
Minnesota	Lac qui Parle County	44.9999	-96.1768
Minnesota	Lake County	47.5171	-91.4117
Minnesota	Lake of the Woods County	48.7681	-94.9046
Minnesota	Le Sueur County	44.3734	-93.7301
Minnesota	Lincoln County	44.4082	-96.2720
Minnesota	Lyon County	44.4092	-95.8473
Minnesota	Mahnomen County	47.3284	-95.8111
Minnesota	Marshall County	48.3627	-96.3578
Minnesota	Martin County	43.6772	-94.5471
Minnesota	McLeod County	44.8217	-94.2723
Minnesota	Meeker County	45.1232	-94.5273
Minnesota	Mille Lacs County	45.9290	-93.6330
Minnesota	Morrison County	46.0205	-94.2666
Minnesota	Mower County	43.6662	-92.7595
Minnesota	Murray County	44.0156	-95.7616
Minnesota	Nicollet County	44.3588	-94.2457
Minnesota	Nobles County	43.6777	-95.7631
Minnesota	Norman County	47.3295	-96.4638
Minnesota	Olmsted County	43.9995	-92.4101
Minnesota	Otter Tail County	46.4057	-95.7146
Minnesota	Pennington County	48.0692	-96.0377
Minnesota	Pine County	46.1009	-92.7631
Minnesota	Pipestone County	44.0154	-96.2570
Minnesota	Polk County	47.7743	-96.4000
Minnesota	Pope County	45.5896	-95.4467
Minnesota	Ramsey County	45.0152	-93.1000
Minnesota	Red Lake County	47.8655	-96.0872
Minnesota	Redwood County	44.4035	-95.2542
Minnesota	Renville County	44.7237	-94.9556
Minnesota	Rice County	44.3508	-93.2985
Minnesota	Rock County	43.6696	-96.2632
Minnesota	Roseau County	48.7611	-95.8215
Minnesota	Scott County	44.6518	-93.5337
Minnesota	Sherburne County	45.4532	-93.7691
Minnesota	Sibley County	44.5757	-94.2301
Minnesota	St. Louis County	47.5786	-92.5146
Minnesota	Stearns County	45.5552	-94.6105
Minnesota	Steele County	44.0153	-93.2205
Minnesota	Stevens County	45.5935	-95.9923
Minnesota	Swift County	45.2758	-95.6901
Minnesota	Todd County	46.0666	-94.9006
Minnesota	Traverse County	45.7699	-96.4748
Minnesota	Wabasha County	44.2896	-92.2335
Minnesota	Wadena County	46.5870	-94.9886
Minnesota	Waseca County	44.0185	-93.5898
Minnesota	Washington County	45.0379	-92.8901
Minnesota	Watonwan County	43.9781	-94.6138
Minnesota	Wilkin County	46.3623	-96.4767
Minnesota	Winona County	43.9814	-91.7770
Minnesota	Wright County	45.1751	-93.9664
Minnesota	Yellow Medicine County	44.7157	-95.8628
Mississippi	Adams County	31.4862	-91.3518
Mississippi	Alcorn County	34.8866	-88.5811
Mississippi	Amite County	31.2039	-90.7955
Mississippi	Attala County	33.0905	-89.5886
Mississippi	Benton County	34.8096	-89.2002
Mississippi	Bolivar County	33.7991	-90.8841
Mississippi	Calhoun County	33.9366	-89.3371
Mississippi	Carroll County	33.4408	-89.9189
Mississippi	Chickasaw County	33.9333	-88.9476
Mississippi	Choctaw County	33.3460	-89.2513
Mississippi	Claiborne County	31.9728	-90.9154
Mississippi	Clarke County	32.0454	-88.6880
Mississippi	Clay County	33.6597	-88.7825
Mississippi	Coahoma County	34.2303	-90.6040
Mississippi	Copiah County	31.8669	-90.4488
Mississippi	Covington County	31.6333	-89.5489
Mississippi	DeSoto County	34.8749	-89.9912
Mississippi	Forrest County	31.1886	-89.2594
Mississippi	Franklin County	31.4778	-90.8955
Mississippi	George County	30.8554	-88.6423
Mississippi	Greene County	31.2128	-88.6348
Mississippi	Grenada County	33.7700	-89.8027
Mississippi	Hancock County	30.3916	-89.4828
Mississippi	Harrison County	30.4165	-89.0834
Mississippi	Hinds County	32.2678	-90.4660
Mississippi	Holmes County	33.1259	-90.0912
Mississippi	Humphreys County	33.1310	-90.5234
Mississippi	Issaquena County	32.7555	-91.0035
Mississippi	Itawamba County	34.2811	-88.3631
Mississippi	Jackson County	30.4560	-88.6251
Mississippi	Jasper County	32.0167	-89.1192
Mississippi	Jefferson County	31.7336	-91.0439
Mississippi	Jefferson Davis County	31.5648	-89.8271
Mississippi	Jones County	31.6166	-89.1685
Mississippi	Kemper County	32.7501	-88.6256
Mississippi	Lafayette County	34.3531	-89.4854
Mississippi	Lamar County	31.1976	-89.5064
Mississippi	Lauderdale County	32.4040	-88.6604
Mississippi	Lawrence County	31.5500	-90.1075
Mississippi	Leake County	32.7606	-89.5222
Mississippi	Lee County	34.2924	-88.6824
Mississippi	Leflore County	33.5498	-90.2949
Mississippi	Lincoln County	31.5352	-90.4536
Mississippi	Lowndes County	33.4714	-88.4397
Mississippi	Madison County	32.6344	-90.0342
Mississippi	Marion County	31.2302	-89.8217
Mississippi	Marshall County	34.7662	-89.5042
Mississippi	Monroe County	33.8900	-88.4850
Mississippi	Montgomery County	33.5007	-89.6396
Mississippi	Neshoba County	32.7525	-89.1193
Mississippi	Newton County	32.4020	-89.1184
Mississippi	Noxubee County	33.1066	-88.5662
Mississippi	Oktibbeha County	33.4223	-88.8762
Mississippi	Panola County	34.3652	-89.9631
Mississippi	Pearl River County	30.7748	-89.5869
Mississippi	Perry County	31.1693	-88.9888
Mississippi	Pike County	31.1775	-90.3977
Mississippi	Pontotoc County	34.2271	-89.0372
Mississippi	Prentiss County	34.6206	-88.5222
Mississippi	Quitman County	34.2528	-90.2902
Mississippi	Rankin County	32.2671	-89.9461
Mississippi	Scott County	32.4120	-89.5335
Mississippi	Sharkey County	32.8924	-90.8276
Mississippi	Simpson County	31.9025	-89.9177
Mississippi	Smith County	32.0190	-89.4949
Mississippi	Stone County	30.7902	-89.1123
Mississippi	Sunflower County	33.6055	-90.5951
Mississippi	Tallahatchie County	33.9545	-90.1722
Mississippi	Tate County	34.6496	-89.9431
Mississippi	Tippah County	34.7636	-88.9188
Mississippi	Tishomingo County	34.7388	-88.2348
Mississippi	Tunica County	34.6522	-90.3718
Mississippi	Union County	34.4895	-89.0023
Mississippi	Walthall County	31.1645	-90.1034
Mississippi	Warren County	32.3561	-90.8524
Mississippi	Washington County	33.2732	-90.9444
Mississippi	Wayne County	31.6425	-88.6782
Mississippi	Webster County	33.6121	-89.2840
Mississippi	Wilkinson County	31.1611	-91.3246
Mississippi	Winston County	33.0787	-89.0374
Mississippi	Yalobusha County	34.0307	-89.7038
Mississippi	Yazoo County	32.7657	-90.3879
Missouri	Adair County	40.1907	-92.6036
Missouri	Andrew County	39.9889	-94.8036
Missouri	Atchison County	40.4318	-95.4376
Missouri	Audrain County	39.2145	-91.8434
Missouri	Barry County	36.6994	-93.8343
Missouri	Barton County	37.5008	-94.3441
Missouri	Bates County	38.2572	-94.3392
Missouri	Benton County	38.3010	-93.2879
Missouri	Bollinger County	37.3184	-90.0246
Missouri	Boone County	38.9899	-92.3102
Missouri	Buchanan County	39.6604	-94.8082
Missouri	Butler County	36.7152	-90.4031
Missouri	Caldwell County	39.6590	-93.9792
Missouri	Callaway County	38.8355	-91.9234
Missouri	Camden County	38.0265	-92.7653
Missouri	Cape Girardeau County	37.3841	-89.6857
Missouri	Carroll County	39.4274	-93.5002
Missouri	Carter County	36.9449	-90.9457
Missouri	Cass County	38.6465	-94.3545
Missouri	Cedar County	37.7337	-93.8500
Missouri	Chariton County	39.5180	-92.9616
Missouri	Christian County	36.9697	-93.1876
Missouri	Clark County	40.4073	-91.7295
Missouri	Clay County	39.3156	-94.4215
Missouri	Clinton County	39.6087	-94.3958
Missouri	Cole County	38.5032	-92.2800
Missouri	Cooper County	38.8471	-92.8101
Missouri	Crawford County	37.9666	-91.3139
Missouri	Dade County	37.4323	-93.8549
Missouri	Dallas County	37.6836	-93.0338
Missouri	Daviess County	39.9628	-93.9701
Missouri	DeKalb County	39.8947	-94.4072
Missouri	Dent County	37.6031	-91.4897
Missouri	Douglas County	36.9465	-92.5159
Missouri	Dunklin County	36.1530	-90.0623
Missouri	Franklin County	38.4130	-91.0728
Missouri	Gasconade County	38.4412	-91.5058
Missouri	Gentry County	40.2081	-94.4053
Missouri	Greene County	37.2582	-93.3406
Missouri	Grundy County	40.1125	-93.5651
Missouri	Harrison County	40.3456	-93.9926
Missouri	Henry County	38.3865	-93.7926
Missouri	Hickory County	37.9369	-93.3230
Missouri	Holt County	40.0957	-95.2191
Missouri	Howard County	39.1434	-92.6959
Missouri	Howell County	36.7744	-91.8874
Missouri	Iron County	37.6260	-90.6996
Missouri	Jackson County	39.0054	-94.3432
Missouri	Jasper County	37.2052	-94.3373
Missouri	Jefferson County	38.2576	-90.5437
Missouri	Johnson County	38.7415	-93.8119
Missouri	Knox County	40.1369	-92.1468
Missouri	Laclede County	37.6597	-92.5948
Missouri	Lafayette County	39.0687	-93.8026
Missouri	Lawrence County	37.1066	-93.8306
Missouri	Lewis County	40.0846	-91.7288
Missouri	Lincoln County	39.0623	-90.9629
Missouri	Linn County	39.8644	-93.1080
Missouri	Livingston County	39.7786	-93.5482
Missouri	Macon County	39.8298	-92.5643
Missouri	Madison County	37.4745	-90.3434
Missouri	Maries County	38.1626	-91.9236
Missouri	Marion County	39.8075	-91.6354
Missouri	McDonald County	36.6280	-94.3437
Missouri	Mercer County	40.4214	-93.5676
Missouri	Miller County	38.2167	-92.4299
Missouri	Mississippi County	36.8263	-89.2959
Missouri	Moniteau County	38.6330	-92.5836
Missouri	Monroe County	39.4983	-92.0065
Missouri	Montgomery County	38.9352	-91.4654
Missouri	Morgan County	38.4208	-92.8748
Missouri	New Madrid County	36.5943	-89.6559
Missouri	Newton County	36.9084	-94.3350
Missouri	Nodaway County	40.3611	-94.8831
Missouri	Oregon County	36.6853	-91.4018
Missouri	Osage County	38.4643	-91.8595
Missouri	Ozark County	36.6496	-92.4585
Missouri	Pemiscot County	36.2099	-89.7859
Missouri	Perry County	37.7111	-89.8021
Missouri	Pettis County	38.7274	-93.2852
Missouri	Phelps County	37.8663	-91.7903
Missouri	Pike County	39.3400	-91.1716
Missouri	Platte County	39.3787	-94.7615
Missouri	Polk County	37.6168	-93.4008
Missouri	Pulaski County	37.8248	-92.2070
Missouri	Putnam County	40.4786	-93.0145
Missouri	Ralls County	39.5535	-91.5248
Missouri	Randolph County	39.4392	-92.4930
Missouri	Ray County	39.3084	-93.9957
Missouri	Reynolds County	37.3665	-90.9723
Missouri	Ripley County	36.6502	-90.8748
Missouri	Saline County	39.1358	-93.2042
Missouri	Schuyler County	40.4694	-92.5190
Missouri	Scotland County	40.4477	-92.1428
Missouri	Scott County	37.0478	-89.5681
Missouri	Shannon County	37.1525	-91.3913
Missouri	Shelby County	39.7975	-92.0887
Missouri	St. Charles County	38.7811	-90.6749
Missouri	St. Clair County	38.0422	-93.7766
Missouri	St. Francois County	37.8107	-90.4739
Missouri	St. Louis County	38.6407	-90.4461
Missouri	St. Louis city	38.6357	-90.2446
Missouri	Ste. Genevieve County	37.8858	-90.1615
Missouri	Stoddard County	36.8516	-89.9475
Missouri	Stone County	36.7458	-93.4578
Missouri	Sullivan County	40.2096	-93.1098
Missouri	Taney County	36.6498	-93.0428
Missouri	Texas County	37.3143	-91.9645
Missouri	Vernon County	37.8502	-94.3416
Missouri	Warren County	38.7619	-91.1593
Missouri	Washington County	37.9426	-90.8970
Missouri	Wayne County	37.1111	-90.4539
Missouri	Webster County	37.2808	-92.8761
Missouri	Worth County	40.4805	-94.4192
Missouri	Wright County	37.2676	-92.4800
Montana	Beaverhead County	45.1339	-112.8929
Montana	Big Horn County	45.4079	-107.5182
Montana	Blaine County	48.4283	-108.9676
Montana	Broadwater County	46.3298	-111.4979
Montana	Carbon County	45.2245	-109.0286
Montana	Carter County	45.5168	-104.5153
Montana	Cascade County	47.3166	-111.3503
Montana	Chouteau County	47.8868	-110.4362
Montana	Custer County	46.2614	-105.5504
Montana	Daniels County	48.7944	-105.5417
Montana	Dawson County	47.2661	-104.8983
Montana	Deer Lodge County	46.0947	-113.1416
Montana	Fallon County	46.3182	-104.4057
Montana	Fergus County	47.2218	-109.2330
Montana	Flathead County	48.2954	-114.0521
Montana	Gallatin County	45.5181	-111.1639
Montana	Garfield County	47.2672	-106.9960
Montana	Glacier County	48.7057	-112.9905
Montana	Golden Valley County	46.3806	-109.1746
Montana	Granite County	46.3960	-113.4274
Montana	Hill County	48.6320	-110.1063
Montana	Jefferson County	46.1242	-112.0594
Montana	Judith Basin County	47.0326	-110.3053
Montana	Lake County	47.6429	-114.0837
Montana	Lewis and Clark County	47.1320	-112.3734
Montana	Liberty County	48.5597	-111.0369
Montana	Lincoln County	48.5524	-115.4632
Montana	Madison County	45.3253	-111.9138
Montana	McCone County	47.6296	-105.7572
Montana	Meagher County	46.5857	-110.9217
Montana	Mineral County	47.1297	-115.0854
Montana	Missoula County	47.0273	-113.8927
Montana	Musselshell County	46.5053	-108.4398
Montana	Park County	45.4631	-110.5349
Montana	Petroleum County	47.1419	-108.2266
Montana	Phillips County	48.2501	-107.9289
Montana	Pondera County	48.2286	-112.2208
Montana	Powder River County	45.4089	-105.5553
Montana	Powell County	46.8442	-112.9311
Montana	Prairie County	46.8124	-105.5040
Montana	Ravalli County	46.0777	-114.1058
Montana	Richland County	47.7856	-104.5634
Montana	Roosevelt County	48.2827	-104.9952
Montana	Rosebud County	46.1732	-106.6668
Montana	Sanders County	47.7565	-115.1803
Montana	Sheridan County	48.7056	-104.5339
Montana	Silver Bow County	45.8962	-112.6601
Montana	Stillwater County	45.6585	-109.3816
Montana	Sweet Grass County	45.8113	-109.9448
Montana	Teton County	47.8190	-112.2817
Montana	Toole County	48.6451	-111.7335
Montana	Treasure County	46.2294	-107.2858
Montana	Valley County	48.3498	-106.6704
Montana	Wheatland County	46.4970	-109.8577
Montana	Wibaux County	46.9630	-104.2745
Montana	Yellowstone County	45.9370	-108.2767
Nebraska	Adams County	40.5206	-98.5000
Nebraska	Antelope County	42.1832	-98.0580
Nebraska	Arthur County	41.5719	-101.6959
Nebraska	Banner County	41.5397	-103.7263
Nebraska	Blaine County	41.9319	-99.9964
Nebraska	Boone County	41.7039	-98.0705
Nebraska	Box Butte County	42.2104	-103.0818
Nebraska	Boyd County	42.8944	-98.7730
Nebraska	Brown County	42.3596	-99.9239
Nebraska	Buffalo County	40.8553	-99.0750
Nebraska	Burt County	41.8542	-96.3377
Nebraska	Butler County	41.2261	-97.1320
Nebraska	Cass County	40.9099	-96.1406
Nebraska	Cedar County	42.6046	-97.2569
Nebraska	Chase County	40.5304	-101.6942
Nebraska	Cherry County	42.5713	-101.0477
Nebraska	Cheyenne County	41.2142	-103.0119
Nebraska	Clay County	40.5237	-98.0509
Nebraska	Colfax County	41.5750	-97.0889
Nebraska	Cuming County	41.9159	-96.7885
Nebraska	Custer County	41.3939	-99.7269
Nebraska	Dakota County	42.3916	-96.5613
Nebraska	Dawes County	42.7130	-103.1354
Nebraska	Dawson County	40.8678	-99.8156
Nebraska	Deuel County	41.1119	-102.3326
Nebraska	Dixon County	42.4851	-96.8558
Nebraska	Dodge County	41.5770	-96.6459
Nebraska	Douglas County	41.2971	-96.1541
Nebraska	Dundy County	40.1802	-101.6811
Nebraska	Fillmore County	40.5250	-97.5967
Nebraska	Franklin County	40.1832	-98.9621
Nebraska	Frontier County	40.5309	-100.4067
Nebraska	Furnas County	40.1919	-99.9097
Nebraska	Gage County	40.2552	-96.6835
Nebraska	Garden County	41.6334	-102.3030
Nebraska	Garfield County	41.9069	-98.9512
Nebraska	Gosper County	40.5091	-99.8232
Nebraska	Grant County	41.9140	-101.7560
Nebraska	Greeley County	41.5676	-98.5306
Nebraska	Hall County	40.8660	-98.5027
Nebraska	Hamilton County	40.8728	-98.0223
Nebraska	Harlan County	40.1788	-99.4034
Nebraska	Hayes County	40.5372	-101.0480
Nebraska	Hitchcock County	40.1769	-101.0442
Nebraska	Holt County	42.4593	-98.7848
Nebraska	Hooker County	41.9203	-101.1173
Nebraska	Howard County	41.2169	-98.5133
Nebraska	Jefferson County	40.1757	-97.1431
Nebraska	Johnson County	40.3950	-96.2653
Nebraska	Kearney County	40.5091	-98.9476
Nebraska	Keith County	41.1942	-101.6444
Nebraska	Keya Paha County	42.8755	-99.7184
Nebraska	Kimball County	41.1993	-103.7032
Nebraska	Knox County	42.6344	-97.8913
Nebraska	Lancaster County	40.7835	-96.6887
Nebraska	Lincoln County	41.0503	-100.7445
Nebraska	Logan County	41.5422	-100.4437
Nebraska	Loup County	41.9032	-99.5099
Nebraska	Madison County	41.9099	-97.6069
Nebraska	McPherson County	41.6484	-101.1209
Nebraska	Merrick County	41.1698	-98.0311
Nebraska	Morrill County	41.7322	-102.9906
Nebraska	Nance County	41.4024	-97.9914
Nebraska	Nemaha County	40.3874	-95.8527
Nebraska	Nuckolls County	40.1765	-98.0468
Nebraska	Otoe County	40.6380	-96.1310
Nebraska	Pawnee County	40.1378	-96.2452
Nebraska	Perkins County	40.8576	-101.6275
Nebraska	Phelps County	40.5164	-99.4066
Nebraska	Pierce County	42.2714	-97.6110
Nebraska	Platte County	41.5769	-97.5135
Nebraska	Polk County	41.1879	-97.5707
Nebraska	Red Willow County	40.1694	-100.4686
Nebraska	Richardson County	40.1237	-95.7186
Nebraska	Rock County	42.3947	-99.4209
Nebraska	Saline County	40.5168	-97.1318
Nebraska	Sarpy County	41.1151	-96.1091
Nebraska	Saunders County	41.2234	-96.6421
Nebraska	Scotts Bluff County	41.8505	-103.7030
Nebraska	Seward County	40.8719	-97.1404
Nebraska	Sheridan County	42.5123	-102.3683
Nebraska	Sherman County	41.2187	-98.9728
Nebraska	Sioux County	42.4707	-103.7322
Nebraska	Stanton County	41.9050	-97.1771
Nebraska	Thayer County	40.1735	-97.5962
Nebraska	Thomas County	41.8557	-100.5247
Nebraska	Thurston County	42.1541	-96.5339
Nebraska	Valley County	41.5641	-98.9835
Nebraska	Washington County	41.5340	-96.2246
Nebraska	Wayne County	42.2107	-97.1262
Nebraska	Webster County	40.1806	-98.4986
Nebraska	Wheeler County	41.9226	-98.5209
Nebraska	York County	40.8731	-97.5967
Nevada	Carson City	39.1531	-119.7474
Nevada	Churchill County	39.5377	-118.2642
Nevada	Clark County	36.2141	-115.0144
Nevada	Douglas County	38.9051	-119.6090
Nevada	Elko County	41.1411	-115.3514
Nevada	Esmeralda County	37.7790	-117.6324
Nevada	Eureka County	39.9778	-116.2722
Nevada	Humboldt County	41.4079	-118.1276
Nevada	Lander County	39.9002	-117.0472
Nevada	Lincoln County	37.6346	-114.8630
Nevada	Lyon County	39.0222	-119.1974
Nevada	Mineral County	38.5166	-118.4163
Nevada	Nye County	37.9659	-116.4590
Nevada	Pershing County	40.4396	-118.4095
Nevada	Storey County	39.4384	-119.5246
Nevada	Washoe County	40.7313	-119.6633
Nevada	White Pine County	39.4182	-114.9006
New Hampshire	Belknap County	43.5191	-71.4254
New Hampshire	Carroll County	43.8678	-71.2016
New Hampshire	Cheshire County	42.9255	-72.2482
New Hampshire	Coos County	44.6525	-71.2894
New Hampshire	Grafton County	43.9264	-71.8424
New Hampshire	Hillsborough County	42.9115	-71.7231
New Hampshire	Merrimack County	43.2996	-71.6800
New Hampshire	Rockingham County	42.9887	-71.0991
New Hampshire	Strafford County	43.2933	-71.0356
New Hampshire	Sullivan County	43.3612	-72.2221
New Jersey	Atlantic County	39.4694	-74.6338
New Jersey	Bergen County	40.9597	-74.0747
New Jersey	Burlington County	39.8758	-74.6630
New Jersey	Camden County	39.8024	-74.9612
New Jersey	Cape May County	39.0858	-74.8464
New Jersey	Cumberland County	39.3284	-75.1216
New Jersey	Essex County	40.7874	-74.2463
New Jersey	Gloucester County	39.7229	-75.1457
New Jersey	Hudson County	40.7314	-74.0786
New Jersey	Hunterdon County	40.5653	-74.9120
New Jersey	Mercer County	40.2825	-74.7037
New Jersey	Middlesex County	40.4396	-74.4074
New Jersey	Monmouth County	40.2870	-74.1524
New Jersey	Morris County	40.8589	-74.5473
New Jersey	Ocean County	39.8657	-74.2589
New Jersey	Passaic County	41.0367	-74.2994
New Jersey	Salem County	39.5738	-75.3574
New Jersey	Somerset County	40.5655	-74.6199
New Jersey	Sussex County	41.1375	-74.6919
New Jersey	Union County	40.6599	-74.3087
New Jersey	Warren County	40.8535	-75.0095
New Mexico	Bernalillo County	35.0536	-106.6691
New Mexico	Catron County	33.9016	-108.3919
New Mexico	Chaves County	33.3616	-104.4698
New Mexico	Cibola County	34.9283	-107.9927
New Mexico	Colfax County	36.6130	-104.6401
New Mexico	Curry County	34.5730	-103.3461
New Mexico	De Baca County	34.3593	-104.3687
New Mexico	Doa Ana County	32.3499	-106.8350
New Mexico	Eddy County	32.4578	-104.3064
New Mexico	Grant County	32.7321	-108.3815
New Mexico	Guadalupe County	34.8698	-104.7850
New Mexico	Harding County	35.8594	-103.8534
New Mexico	Hidalgo County	31.8981	-108.7519
New Mexico	Lea County	32.7957	-103.4133
New Mexico	Lincoln County	33.7408	-105.4498
New Mexico	Los Alamos County	35.8700	-106.3080
New Mexico	Luna County	32.1845	-107.7472
New Mexico	McKinley County	35.5841	-108.2533
New Mexico	Mora County	35.9828	-104.9219
New Mexico	Otero County	32.6156	-105.7513
New Mexico	Quay County	35.1070	-103.5481
New Mexico	Rio Arriba County	36.5097	-106.6940
New Mexico	Roosevelt County	34.0212	-103.4830
New Mexico	San Juan County	36.5116	-108.3246
New Mexico	San Miguel County	35.4769	-104.8035
New Mexico	Sandoval County	35.6851	-106.8831
New Mexico	Santa Fe County	35.5145	-105.9640
New Mexico	Sierra County	33.1195	-107.1882
New Mexico	Socorro County	33.9917	-106.9391
New Mexico	Taos County	36.5772	-105.6389
New Mexico	Torrance County	34.5550	-105.8906
New Mexico	Union County	36.4881	-103.4757
New Mexico	Valencia County	34.7168	-106.8066
New York	Albany County	42.5882	-73.9740
New York	Allegany County	42.2479	-78.0262
New York	Bronx County	40.8487	-73.8529
New York	Broome County	42.1620	-75.8303
New York	Cattaraugus County	42.2391	-78.6623
New York	Cayuga County	43.0085	-76.5746
New York	Chautauqua County	42.3042	-79.4076
New York	Chemung County	42.1487	-76.7525
New York	Chenango County	42.4780	-75.6022
New York	Clinton County	44.7527	-73.7056
New York	Columbia County	42.2477	-73.6267
New York	Cortland County	42.5940	-76.0762
New York	Delaware County	42.1940	-74.9667
New York	Dutchess County	41.7548	-73.7400
New York	Erie County	42.7528	-78.7782
New York	Essex County	44.1096	-73.7784
New York	Franklin County	44.5944	-74.3107
New York	Fulton County	43.1156	-74.4237
New York	Genesee County	43.0009	-78.1928
New York	Greene County	42.2798	-74.1420
New York	Hamilton County	43.6579	-74.5025
New York	Herkimer County	43.5710	-74.8411
New York	Jefferson County	43.9964	-76.0530
New York	Kings County	40.6350	-73.9506
New York	Lewis County	43.7827	-75.4441
New York	Livingston County	42.7290	-77.7785
New York	Madison County	42.9100	-75.6636
New York	Monroe County	43.2503	-77.7005
New York	Montgomery County	42.9009	-74.4354
New York	Nassau County	40.7296	-73.5894
New York	New York County	40.7766	-73.9702
New York	Niagara County	43.2727	-78.8129
New York	Oneida County	43.2427	-75.4343
New York	Onondaga County	43.0065	-76.1961
New York	Ontario County	42.8564	-77.3035
New York	Orange County	41.4024	-74.3063
New York	Orleans County	43.3399	-78.2070
New York	Oswego County	43.4614	-76.2093
New York	Otsego County	42.6298	-75.0288
New York	Putnam County	41.4279	-73.7439
New York	Queens County	40.6547	-73.8412
New York	Rensselaer County	42.7104	-73.5138
New York	Richmond County	40.5613	-74.1399
New York	Rockland County	41.1546	-74.0247
New York	Saratoga County	43.1061	-73.8554
New York	Schenectady County	42.8176	-74.0436
New York	Schoharie County	42.5913	-74.4382
New York	Schuyler County	42.4198	-76.9386
New York	Seneca County	42.7823	-76.8271
New York	St. Lawrence County	44.4881	-75.0743
New York	Steuben County	42.2667	-77.3855
New York	Suffolk County	40.9436	-72.6922
New York	Sullivan County	41.7200	-74.7716
New York	Tioga County	42.1781	-76.2975
New York	Tompkins County	42.4530	-76.4735
New York	Ulster County	41.9472	-74.2655
New York	Warren County	43.5551	-73.8381
New York	Washington County	43.3124	-73.4394
New York	Wayne County	43.2181	-77.0494
New York	Westchester County	41.1527	-73.7458
New York	Wyoming County	42.7014	-78.2286
New York	Yates County	42.6382	-77.1043
North Carolina	Alamance County	36.0440	-79.4006
North Carolina	Alexander County	35.9210	-81.1775
North Carolina	Alleghany County	36.4894	-81.1323
North Carolina	Anson County	34.9750	-80.1098
North Carolina	Ashe County	36.4435	-81.4993
North Carolina	Avery County	36.0721	-81.9203
North Carolina	Beaufort County	35.4823	-76.8420
North Carolina	Bertie County	36.0590	-76.9624
North Carolina	Bladen County	34.5919	-78.5395
North Carolina	Brunswick County	34.0388	-78.2278
North Carolina	Buncombe County	35.6094	-82.5304
North Carolina	Burke County	35.7462	-81.7062
North Carolina	Cabarrus County	35.3883	-80.5527
North Carolina	Caldwell County	35.9664	-81.5125
North Carolina	Camden County	36.3423	-76.1625
North Carolina	Carteret County	34.8583	-76.5359
North Carolina	Caswell County	36.3943	-79.3396
North Carolina	Catawba County	35.6619	-81.2149
North Carolina	Chatham County	35.7050	-79.2515
North Carolina	Cherokee County	35.1371	-84.0614
North Carolina	Chowan County	36.1290	-76.6028
North Carolina	Clay County	35.0530	-83.7523
North Carolina	Cleveland County	35.3346	-81.5571
North Carolina	Columbus County	34.2616	-78.6393
North Carolina	Craven County	35.1168	-77.0813
North Carolina	Cumberland County	35.0502	-78.8287
North Carolina	Currituck County	36.3722	-75.9412
North Carolina	Dare County	35.6063	-75.7675
North Carolina	Davidson County	35.7951	-80.2071
North Carolina	Davie County	35.9294	-80.5426
North Carolina	Duplin County	34.9344	-77.9335
North Carolina	Durham County	36.0338	-78.8781
North Carolina	Edgecombe County	35.9171	-77.6027
North Carolina	Forsyth County	36.1325	-80.2570
North Carolina	Franklin County	36.0882	-78.2831
North Carolina	Gaston County	35.2933	-81.1773
North Carolina	Gates County	36.4421	-76.7024
North Carolina	Graham County	35.3484	-83.8309
North Carolina	Granville County	36.2999	-78.6576
North Carolina	Greene County	35.4820	-77.6817
North Carolina	Guilford County	36.0791	-79.7887
North Carolina	Halifax County	36.2514	-77.6448
North Carolina	Harnett County	35.3686	-78.8716
North Carolina	Haywood County	35.5589	-82.9813
North Carolina	Henderson County	35.3364	-82.4797
North Carolina	Hertford County	36.3635	-76.9816
North Carolina	Hoke County	35.0172	-79.2420
North Carolina	Hyde County	35.4082	-76.1537
North Carolina	Iredell County	35.8063	-80.8745
North Carolina	Jackson County	35.2855	-83.1240
North Carolina	Johnston County	35.5134	-78.3673
North Carolina	Jones County	35.0323	-77.3562
North Carolina	Lee County	35.4763	-79.1721
North Carolina	Lenoir County	35.2401	-77.6355
North Carolina	Lincoln County	35.4885	-81.2269
North Carolina	Macon County	35.1530	-83.4219
North Carolina	Madison County	35.8642	-82.7126
North Carolina	Martin County	35.8473	-77.1196
North Carolina	McDowell County	35.6823	-82.0480
North Carolina	Mecklenburg County	35.2469	-80.8338
North Carolina	Mitchell County	36.0131	-82.1636
North Carolina	Montgomery County	35.3275	-79.9108
North Carolina	Moore County	35.3083	-79.4927
North Carolina	Nash County	35.9659	-77.9876
North Carolina	New Hanover County	34.1834	-77.8642
North Carolina	Northampton County	36.4218	-77.3984
North Carolina	Onslow County	34.7631	-77.4995
North Carolina	Orange County	36.0625	-79.1200
North Carolina	Pamlico County	35.1476	-76.6653
North Carolina	Pasquotank County	36.2652	-76.2607
North Carolina	Pender County	34.5126	-77.8881
North Carolina	Perquimans County	36.1809	-76.4032
North Carolina	Person County	36.3864	-78.9656
North Carolina	Pitt County	35.5925	-77.3727
North Carolina	Polk County	35.2779	-82.1676
North Carolina	Randolph County	35.7099	-79.8062
North Carolina	Richmond County	35.0046	-79.7557
North Carolina	Robeson County	34.6392	-79.1009
North Carolina	Rockingham County	36.3818	-79.7828
North Carolina	Rowan County	35.6414	-80.5217
North Carolina	Rutherford County	35.4027	-81.9196
North Carolina	Sampson County	34.9893	-78.3713
North Carolina	Scotland County	34.8400	-79.4773
North Carolina	Stanly County	35.3104	-80.2544
North Carolina	Stokes County	36.3938	-80.2699
North Carolina	Surry County	36.4154	-80.6865
North Carolina	Swain County	35.5688	-83.4656
North Carolina	Transylvania County	35.2101	-82.8167
North Carolina	Tyrrell County	35.8704	-76.1653
North Carolina	Union County	34.9918	-80.5304
North Carolina	Vance County	36.3655	-78.4054
North Carolina	Wake County	35.7898	-78.6506
North Carolina	Warren County	36.3981	-78.0999
North Carolina	Washington County	35.8447	-76.5723
North Carolina	Watauga County	36.2354	-81.7099
North Carolina	Wayne County	35.3542	-78.0087
North Carolina	Wilkes County	36.2089	-81.1661
North Carolina	Wilson County	35.7004	-77.9216
North Carolina	Yadkin County	36.1588	-80.6652
North Carolina	Yancey County	35.8893	-82.3040
North Dakota	Adams County	46.0968	-102.5332
North Dakota	Barnes County	46.9425	-98.0702
North Dakota	Benson County	48.0717	-99.3512
North Dakota	Billings County	47.0070	-103.3640
North Dakota	Bottineau County	48.7944	-100.8313
North Dakota	Bowman County	46.1101	-103.5059
North Dakota	Burke County	48.7865	-102.5201
North Dakota	Burleigh County	46.9788	-100.4695
North Dakota	Cass County	46.9270	-97.2524
North Dakota	Cavalier County	48.7684	-98.4638
North Dakota	Dickey County	46.1078	-98.4965
North Dakota	Divide County	48.8148	-103.5093
North Dakota	Dunn County	47.3546	-102.6123
North Dakota	Eddy County	47.7234	-98.9005
North Dakota	Emmons County	46.2843	-100.2378
North Dakota	Foster County	47.4714	-98.8729
North Dakota	Golden Valley County	46.9389	-103.8446
North Dakota	Grand Forks County	47.9260	-97.4509
North Dakota	Grant County	46.3578	-101.6390
North Dakota	Griggs County	47.4563	-98.2323
North Dakota	Hettinger County	46.4357	-102.4542
North Dakota	Kidder County	46.9383	-99.7312
North Dakota	LaMoure County	46.4642	-98.5261
North Dakota	Logan County	46.4693	-99.5046
North Dakota	McHenry County	48.2338	-100.6333
North Dakota	McIntosh County	46.1087	-99.4165
North Dakota	McKenzie County	47.7425	-103.4032
North Dakota	McLean County	47.6532	-101.4219
North Dakota	Mercer County	47.3071	-101.8333
North Dakota	Morton County	46.7108	-101.2983
North Dakota	Mountrail County	48.2101	-102.3649
North Dakota	Nelson County	47.9187	-98.2044
North Dakota	Oliver County	47.1181	-101.3314
North Dakota	Pembina County	48.7669	-97.5454
North Dakota	Pierce County	48.2389	-99.9665
North Dakota	Ramsey County	48.2662	-98.7390
North Dakota	Ransom County	46.4493	-97.6476
North Dakota	Renville County	48.7128	-101.6582
North Dakota	Richland County	46.2652	-96.9380
North Dakota	Rolette County	48.7683	-99.8405
North Dakota	Sargent County	46.1082	-97.6301
North Dakota	Sheridan County	47.5814	-100.3310
North Dakota	Sioux County	46.1106	-101.0613
North Dakota	Slope County	46.4458	-103.4625
North Dakota	Stark County	46.8170	-102.6620
North Dakota	Steele County	47.4511	-97.7189
North Dakota	Stutsman County	46.9722	-98.9561
North Dakota	Towner County	48.6822	-99.2482
North Dakota	Traill County	47.4462	-97.1648
North Dakota	Walsh County	48.3770	-97.7222
North Dakota	Ward County	48.2167	-101.5405
North Dakota	Wells County	47.5809	-99.6822
North Dakota	Williams County	48.3558	-103.5013
Ohio	Adams County	38.8345	-83.4781
Ohio	Allen County	40.7716	-84.1061
Ohio	Ashland County	40.8433	-82.2701
Ohio	Ashtabula County	41.9066	-80.7456
Ohio	Athens County	39.3328	-82.0459
Ohio	Auglaize County	40.5613	-84.2240
Ohio	Belmont County	40.0177	-80.9677
Ohio	Brown County	38.9314	-83.8668
Ohio	Butler County	39.4397	-84.5657
Ohio	Carroll County	40.5799	-81.0908
Ohio	Champaign County	40.1328	-83.7676
Ohio	Clark County	39.9170	-83.7837
Ohio	Clermont County	39.0521	-84.1495
Ohio	Clinton County	39.4167	-83.8046
Ohio	Columbiana County	40.7701	-80.7785
Ohio	Coshocton County	40.2967	-81.9301
Ohio	Crawford County	40.8485	-82.9248
Ohio	Cuyahoga County	41.5550	-81.6050
Ohio	Darke County	40.1315	-84.6212
Ohio	Defiance County	41.3217	-84.4864
Ohio	Delaware County	40.2789	-83.0075
Ohio	Erie County	41.3941	-82.5868
Ohio	Fairfield County	39.7477	-82.6267
Ohio	Fayette County	39.5552	-83.4619
Ohio	Franklin County	39.9699	-83.0091
Ohio	Fulton County	41.5973	-84.1243
Ohio	Gallia County	38.8170	-82.3017
Ohio	Geauga County	41.4993	-81.1735
Ohio	Greene County	39.6875	-83.8949
Ohio	Guernsey County	40.0567	-81.4979
Ohio	Hamilton County	39.1969	-84.5442
Ohio	Hancock County	41.0002	-83.6659
Ohio	Hardin County	40.6604	-83.6641
Ohio	Harrison County	40.2923	-81.0916
Ohio	Henry County	41.3316	-84.0689
Ohio	Highland County	39.1844	-83.6014
Ohio	Hocking County	39.4903	-82.4834
Ohio	Holmes County	40.5656	-81.9300
Ohio	Huron County	41.1451	-82.5946
Ohio	Jackson County	39.0135	-82.6141
Ohio	Jefferson County	40.3994	-80.7635
Ohio	Knox County	40.4036	-82.4224
Ohio	Lake County	41.7781	-81.1973
Ohio	Lawrence County	38.6039	-82.5172
Ohio	Licking County	40.0915	-82.4834
Ohio	Logan County	40.3876	-83.7663
Ohio	Lorain County	41.4388	-82.1797
Ohio	Lucas County	41.6823	-83.4689
Ohio	Madison County	39.8966	-83.4009
Ohio	Mahoning County	41.0109	-80.7704
Ohio	Marion County	40.5880	-83.1688
Ohio	Medina County	41.1162	-81.8998
Ohio	Meigs County	39.0898	-82.0284
Ohio	Mercer County	40.5353	-84.6321
Ohio	Miami County	40.0533	-84.2284
Ohio	Monroe County	39.7263	-81.0910
Ohio	Montgomery County	39.7537	-84.2906
Ohio	Morgan County	39.6249	-81.8617
Ohio	Morrow County	40.5253	-82.7977
Ohio	Muskingum County	39.9660	-81.9435
Ohio	Noble County	39.7672	-81.4525
Ohio	Ottawa County	41.5455	-83.0126
Ohio	Paulding County	41.1189	-84.5821
Ohio	Perry County	39.7432	-82.2380
Ohio	Pickaway County	39.6489	-83.0528
Ohio	Pike County	39.0713	-83.0529
Ohio	Portage County	41.1690	-81.1970
Ohio	Preble County	39.7388	-84.6448
Ohio	Putnam County	41.0245	-84.1299
Ohio	Richland County	40.7742	-82.5428
Ohio	Ross County	39.3239	-83.0595
Ohio	Sandusky County	41.3553	-83.1428
Ohio	Scioto County	38.8149	-82.9987
Ohio	Seneca County	41.1200	-83.1275
Ohio	Shelby County	40.3367	-84.2041
Ohio	Stark County	40.8141	-81.3657
Ohio	Summit County	41.1218	-81.5349
Ohio	Trumbull County	41.3064	-80.7704
Ohio	Tuscarawas County	40.4474	-81.4712
Ohio	Union County	40.2959	-83.3670
Ohio	Van Wert County	40.8555	-84.5858
Ohio	Vinton County	39.2520	-82.4860
Ohio	Warren County	39.4257	-84.1699
Ohio	Washington County	39.4507	-81.4906
Ohio	Wayne County	40.8297	-81.8872
Ohio	Williams County	41.5650	-84.5843
Ohio	Wood County	41.3602	-83.6227
Ohio	Wyandot County	40.8398	-83.3137
Oklahoma	Adair County	35.8980	-94.6510
Oklahoma	Alfalfa County	36.7297	-98.3234
Oklahoma	Atoka County	34.3925	-96.0366
Oklahoma	Beaver County	36.7483	-100.4831
Oklahoma	Beckham County	35.2706	-99.6901
Oklahoma	Blaine County	35.8778	-98.4290
Oklahoma	Bryan County	33.9640	-96.2651
Oklahoma	Caddo County	35.1679	-98.3810
Oklahoma	Canadian County	35.5434	-97.9799
Oklahoma	Carter County	34.2518	-97.2879
Oklahoma	Cherokee County	35.9044	-94.9968
Oklahoma	Choctaw County	34.0277	-95.5541
Oklahoma	Cimarron County	36.7484	-102.5177
Oklahoma	Cleveland County	35.2064	-97.3231
Oklahoma	Coal County	34.5829	-96.2880
Oklahoma	Comanche County	34.6626	-98.4766
Oklahoma	Cotton County	34.2907	-98.3734
Oklahoma	Craig County	36.7639	-95.2016
Oklahoma	Creek County	35.9074	-96.3802
Oklahoma	Custer County	35.6456	-98.9974
Oklahoma	Delaware County	36.3934	-94.8082
Oklahoma	Dewey County	35.9780	-99.0144
Oklahoma	Ellis County	36.2243	-99.7501
Oklahoma	Garfield County	36.3781	-97.7887
Oklahoma	Garvin County	34.7093	-97.3127
Oklahoma	Grady County	35.0211	-97.8869
Oklahoma	Grant County	36.7883	-97.7882
Oklahoma	Greer County	34.9339	-99.5530
Oklahoma	Harmon County	34.7460	-99.8442
Oklahoma	Harper County	36.8004	-99.6628
Oklahoma	Haskell County	35.2324	-95.1096
Oklahoma	Hughes County	35.0529	-96.2512
Oklahoma	Jackson County	34.5940	-99.4122
Oklahoma	Jefferson County	34.1051	-97.8389
Oklahoma	Johnston County	34.3135	-96.6543
Oklahoma	Kay County	36.8149	-97.1439
Oklahoma	Kingfisher County	35.9494	-97.9346
Oklahoma	Kiowa County	34.9215	-98.9816
Oklahoma	Latimer County	34.8751	-95.2723
Oklahoma	Le Flore County	34.8974	-94.6951
Oklahoma	Lincoln County	35.7031	-96.8814
Oklahoma	Logan County	35.9143	-97.4510
Oklahoma	Love County	33.9578	-97.2451
Oklahoma	Major County	36.3131	-98.5420
Oklahoma	Marshall County	34.0270	-96.7705
Oklahoma	Mayes County	36.3038	-95.2356
Oklahoma	McClain County	35.0164	-97.4498
Oklahoma	McCurtain County	34.1171	-94.7661
Oklahoma	McIntosh County	35.3691	-95.6718
Oklahoma	Murray County	34.4858	-97.0716
Oklahoma	Muskogee County	35.6176	-95.3839
Oklahoma	Noble County	36.3849	-97.2363
Oklahoma	Nowata County	36.7896	-95.6133
Oklahoma	Okfuskee County	35.4668	-96.3278
Oklahoma	Oklahoma County	35.5546	-97.4094
Oklahoma	Okmulgee County	35.6435	-95.9659
Oklahoma	Osage County	36.6243	-96.4081
Oklahoma	Ottawa County	36.8358	-94.8027
Oklahoma	Pawnee County	36.3137	-96.6967
Oklahoma	Payne County	36.0792	-96.9753
Oklahoma	Pittsburg County	34.9255	-95.7481
Oklahoma	Pontotoc County	34.7214	-96.6918
Oklahoma	Pottawatomie County	35.2114	-96.9570
Oklahoma	Pushmataha County	34.3779	-95.4081
Oklahoma	Roger Mills County	35.7086	-99.7416
Oklahoma	Rogers County	36.3778	-95.6014
Oklahoma	Seminole County	35.1584	-96.6029
Oklahoma	Sequoyah County	35.5024	-94.7508
Oklahoma	Stephens County	34.4814	-97.8556
Oklahoma	Texas County	36.7463	-101.4839
Oklahoma	Tillman County	34.3711	-98.9317
Oklahoma	Tulsa County	36.1203	-95.9418
Oklahoma	Wagoner County	35.9634	-95.5142
Oklahoma	Washington County	36.7044	-95.9063
Oklahoma	Washita County	35.2901	-98.9922
Oklahoma	Woods County	36.7270	-98.8636
Oklahoma	Woodward County	36.4256	-99.2737
Oregon	Baker County	44.7034	-117.6919
Oregon	Benton County	44.4939	-123.4247
Oregon	Clackamas County	45.1605	-122.1951
Oregon	Clatsop County	46.0245	-123.7050
Oregon	Columbia County	45.9419	-123.0811
Oregon	Coos County	43.1859	-124.0941
Oregon	Crook County	44.1631	-120.3716
Oregon	Curry County	42.4664	-124.2109
Oregon	Deschutes County	43.9151	-121.2256
Oregon	Douglas County	43.2863	-123.1545
Oregon	Gilliam County	45.3830	-120.2762
Oregon	Grant County	44.4963	-119.0141
Oregon	Harney County	43.0644	-118.9872
Oregon	Hood River County	45.5118	-121.6560
Oregon	Jackson County	42.4116	-122.6756
Oregon	Jefferson County	44.6452	-121.1786
Oregon	Josephine County	42.3870	-123.5716
Oregon	Klamath County	42.6838	-121.6462
Oregon	Lake County	42.7884	-120.3898
Oregon	Lane County	43.9283	-122.8976
Oregon	Lincoln County	44.6411	-123.9112
Oregon	Linn County	44.4889	-122.5372
Oregon	Malheur County	43.1886	-117.6032
Oregon	Marion County	44.9009	-122.5763
Oregon	Morrow County	45.4255	-119.6023
Oregon	Multnomah County	45.5477	-122.4174
Oregon	Polk County	44.9004	-123.3986
Oregon	Sherman County	45.3992	-120.6785
Oregon	Tillamook County	45.4559	-123.7593
Oregon	Umatilla County	45.5912	-118.7339
Oregon	Union County	45.3041	-117.9991
Oregon	Wallowa County	45.5938	-117.1856
Oregon	Wasco County	45.1645	-121.1651
Oregon	Washington County	45.5535	-123.0976
Oregon	Wheeler County	44.7364	-120.0269
Oregon	Yamhill County	45.2478	-123.3164
Pennsylvania	Adams County	39.8695	-77.2177
Pennsylvania	Allegheny County	40.4698	-79.9805
Pennsylvania	Armstrong County	40.8124	-79.4641
Pennsylvania	Beaver County	40.6841	-80.3507
Pennsylvania	Bedford County	39.9986	-78.4947
Pennsylvania	Berks County	40.4140	-75.9269
Pennsylvania	Blair County	40.4987	-78.3096
Pennsylvania	Bradford County	41.7915	-76.5021
Pennsylvania	Bucks County	40.3369	-75.1071
Pennsylvania	Butler County	40.9138	-79.9190
Pennsylvania	Cambria County	40.5102	-78.7105
Pennsylvania	Cameron County	41.4383	-78.1983
Pennsylvania	Carbon County	40.9184	-75.7050
Pennsylvania	Centre County	40.9093	-77.8477
Pennsylvania	Chester County	39.9740	-75.7498
Pennsylvania	Clarion County	41.1982	-79.4204
Pennsylvania	Clearfield County	41.0069	-78.4777
Pennsylvania	Clinton County	41.2395	-77.6290
Pennsylvania	Columbia County	41.0455	-76.4043
Pennsylvania	Crawford County	41.6879	-80.1078
Pennsylvania	Cumberland County	40.1648	-77.2634
Pennsylvania	Dauphin County	40.4126	-76.7926
Pennsylvania	Delaware County	39.9167	-75.3988
Pennsylvania	Elk County	41.4273	-78.6539
Pennsylvania	Erie County	42.1180	-80.0964
Pennsylvania	Fayette County	39.9189	-79.6401
Pennsylvania	Forest County	41.5133	-79.2497
Pennsylvania	Franklin County	39.9268	-77.7245
Pennsylvania	Fulton County	39.9108	-78.1226
Pennsylvania	Greene County	39.8477	-80.2257
Pennsylvania	Huntingdon County	40.4223	-77.9686
Pennsylvania	Indiana County	40.6514	-79.0875
Pennsylvania	Jefferson County	41.1380	-79.0124
Pennsylvania	Juniata County	40.5307	-77.4004
Pennsylvania	Lackawanna County	41.4366	-75.6088
Pennsylvania	Lancaster County	40.0420	-76.2502
Pennsylvania	Lawrence County	40.9927	-80.3344
Pennsylvania	Lebanon County	40.3714	-76.4648
Pennsylvania	Lehigh County	40.6142	-75.5906
Pennsylvania	Luzerne County	41.1731	-75.9761
Pennsylvania	Lycoming County	41.3439	-77.0553
Pennsylvania	McKean County	41.8146	-78.5725
Pennsylvania	Mercer County	41.3000	-80.2528
Pennsylvania	Mifflin County	40.6016	-77.6518
Pennsylvania	Monroe County	41.0562	-75.3291
Pennsylvania	Montgomery County	40.2100	-75.3702
Pennsylvania	Montour County	41.0293	-76.6652
Pennsylvania	Northampton County	40.7528	-75.3074
Pennsylvania	Northumberland County	40.8515	-76.7099
Pennsylvania	Perry County	40.3978	-77.2663
Pennsylvania	Philadelphia County	40.0094	-75.1333
Pennsylvania	Pike County	41.3259	-75.0315
Pennsylvania	Potter County	41.7486	-77.8944
Pennsylvania	Schuylkill County	40.7037	-76.2178
Pennsylvania	Snyder County	40.7554	-77.0729
Pennsylvania	Somerset County	39.9813	-79.0285
Pennsylvania	Sullivan County	41.4393	-76.5117
Pennsylvania	Susquehanna County	41.8197	-75.8010
Pennsylvania	Tioga County	41.7669	-77.2573
Pennsylvania	Union County	40.9622	-77.0555
Pennsylvania	Venango County	41.4007	-79.7658
Pennsylvania	Warren County	41.8343	-79.2982
Pennsylvania	Washington County	40.2000	-80.2521
Pennsylvania	Wayne County	41.6466	-75.2925
Pennsylvania	Westmoreland County	40.3111	-79.4667
Pennsylvania	Wyoming County	41.5252	-76.0087
Pennsylvania	York County	39.9218	-76.7289
Rhode Island	Bristol County	41.7068	-71.2867
Rhode Island	Kent County	41.6751	-71.5803
Rhode Island	Newport County	41.5010	-71.2831
Rhode Island	Providence County	41.8698	-71.5786
Rhode Island	Washington County	41.3968	-71.6203
South Carolina	Abbeville County	34.2290	-82.4541
South Carolina	Aiken County	33.5500	-81.6330
South Carolina	Allendale County	32.9798	-81.3633
South Carolina	Anderson County	34.5212	-82.6386
South Carolina	Bamberg County	33.2030	-81.0532
South Carolina	Barnwell County	33.2606	-81.4342
South Carolina	Beaufort County	32.3581	-80.6894
South Carolina	Berkeley County	33.2077	-79.9537
South Carolina	Calhoun County	33.6748	-80.7803
South Carolina	Charleston County	32.8005	-79.9425
South Carolina	Cherokee County	35.0498	-81.6076
South Carolina	Chester County	34.6893	-81.1612
South Carolina	Chesterfield County	34.6370	-80.1592
South Carolina	Clarendon County	33.6647	-80.2179
South Carolina	Colleton County	32.8350	-80.6552
South Carolina	Darlington County	34.3322	-79.9621
South Carolina	Dillon County	34.3902	-79.3753
South Carolina	Dorchester County	33.0822	-80.4047
South Carolina	Edgefield County	33.7765	-81.9682
South Carolina	Fairfield County	34.3957	-81.1270
South Carolina	Florence County	34.0285	-79.7102
South Carolina	Georgetown County	33.4175	-79.2963
South Carolina	Greenville County	34.8926	-82.3721
South Carolina	Greenwood County	34.1558	-82.1279
South Carolina	Hampton County	32.7783	-81.1438
South Carolina	Horry County	33.9093	-78.9767
South Carolina	Jasper County	32.4306	-81.0216
South Carolina	Kershaw County	34.3384	-80.5909
South Carolina	Lancaster County	34.6868	-80.7037
South Carolina	Laurens County	34.4837	-82.0055
South Carolina	Lee County	34.1586	-80.2512
South Carolina	Lexington County	33.8992	-81.2661
South Carolina	Marion County	34.0836	-79.3540
South Carolina	Marlboro County	34.6017	-79.6794
South Carolina	McCormick County	33.8976	-82.3162
South Carolina	Newberry County	34.2899	-81.5997
South Carolina	Oconee County	34.7488	-83.0615
South Carolina	Orangeburg County	33.4361	-80.8029
South Carolina	Pickens County	34.8854	-82.7234
South Carolina	Richland County	34.0291	-80.8980
South Carolina	Saluda County	34.0053	-81.7279
South Carolina	Spartanburg County	34.9320	-81.9916
South Carolina	Sumter County	33.9161	-80.3824
South Carolina	Union County	34.6904	-81.6159
South Carolina	Williamsburg County	33.6265	-79.7165
South Carolina	York County	34.9702	-81.1832
South Dakota	Aurora County	43.7247	-98.5776
South Dakota	Beadle County	44.4183	-98.2794
South Dakota	Bennett County	43.1869	-101.6772
South Dakota	Bon Homme County	42.9858	-97.8842
South Dakota	Brookings County	44.3767	-96.7978
South Dakota	Brown County	45.5893	-98.3522
South Dakota	Brule County	43.7299	-99.0929
South Dakota	Buffalo County	44.0443	-99.2040
South Dakota	Butte County	44.8962	-103.5014
South Dakota	Campbell County	45.7856	-100.0021
South Dakota	Charles Mix County	43.2062	-98.5951
South Dakota	Clark County	44.8552	-97.7249
South Dakota	Clay County	42.9161	-96.9805
South Dakota	Codington County	44.9663	-97.1988
South Dakota	Corson County	45.6857	-101.1797
South Dakota	Custer County	43.6849	-103.4622
South Dakota	Davison County	43.6804	-98.1559
South Dakota	Day County	45.3552	-97.5814
South Dakota	Deuel County	44.7563	-96.6902
South Dakota	Dewey County	45.1480	-100.8380
South Dakota	Douglas County	43.3915	-98.3584
South Dakota	Edmunds County	45.4117	-99.2054
South Dakota	Fall River County	43.2216	-103.5126
South Dakota	Faulk County	45.0655	-99.1536
South Dakota	Grant County	45.1726	-96.7723
South Dakota	Gregory County	43.1751	-99.2066
South Dakota	Haakon County	44.2881	-101.5409
South Dakota	Hamlin County	44.6806	-97.1786
South Dakota	Hand County	44.5467	-99.0046
South Dakota	Hanson County	43.6806	-97.7968
South Dakota	Harding County	45.5966	-103.4739
South Dakota	Hughes County	44.3845	-99.9757
South Dakota	Hutchinson County	43.3367	-97.7494
South Dakota	Hyde County	44.5372	-99.4727
South Dakota	Jackson County	43.6775	-101.6263
South Dakota	Jerauld County	44.0634	-98.6232
South Dakota	Jones County	43.9520	-100.6861
South Dakota	Kingsbury County	44.3630	-97.4993
South Dakota	Lake County	44.0284	-97.1232
South Dakota	Lawrence County	44.3485	-103.8064
South Dakota	Lincoln County	43.2794	-96.7223
South Dakota	Lyman County	43.8948	-99.8419
South Dakota	Marshall County	45.7370	-97.5809
South Dakota	McCook County	43.6804	-97.3580
South Dakota	McPherson County	45.7842	-99.2114
South Dakota	Meade County	44.6053	-102.7142
South Dakota	Mellette County	43.5813	-100.7552
South Dakota	Miner County	44.0215	-97.6081
South Dakota	Minnehaha County	43.6675	-96.7957
South Dakota	Moody County	44.0124	-96.6761
South Dakota	Oglala Lakota County	43.3334	-102.5615
South Dakota	Pennington County	44.0023	-102.8238
South Dakota	Perkins County	45.4834	-102.4680
South Dakota	Potter County	45.0527	-99.9620
South Dakota	Roberts County	45.6234	-96.9476
South Dakota	Sanborn County	44.0189	-98.0917
South Dakota	Spink County	44.9238	-98.3396
South Dakota	Stanley County	44.4140	-100.7478
South Dakota	Sully County	44.7223	-100.1314
South Dakota	Todd County	43.2088	-100.7077
South Dakota	Tripp County	43.3497	-99.8762
South Dakota	Turner County	43.3087	-97.1502
South Dakota	Union County	42.8311	-96.6508
South Dakota	Walworth County	45.4276	-100.0279
South Dakota	Yankton County	43.0066	-97.3884
South Dakota	Ziebach County	44.9898	-101.6608
Tennessee	Anderson County	36.1167	-84.1954
Tennessee	Bedford County	35.5137	-86.4583
Tennessee	Benton County	36.0709	-88.0712
Tennessee	Bledsoe County	35.5936	-85.2059
Tennessee	Blount County	35.6882	-83.9230
Tennessee	Bradley County	35.1539	-84.8594
Tennessee	Campbell County	36.4016	-84.1592
Tennessee	Cannon County	35.8084	-86.0624
Tennessee	Carroll County	35.9657	-88.4524
Tennessee	Carter County	36.2847	-82.1266
Tennessee	Cheatham County	36.2552	-87.1008
Tennessee	Chester County	35.4203	-88.6114
Tennessee	Claiborne County	36.5016	-83.6607
Tennessee	Clay County	36.5457	-85.5457
